country,state,city,station,last_update,latitude,longitude,pollutant_id,pollutant_min,pollutant_max,pollutant_avg
India,Andhra_Pradesh,Visakhapatnam,"GVM Corporation, Visakhapatnam - APPCB","07-04-2025 18:00:00",17.72,83.3,OZONE,NA,NA,NA
India,Assam,Guwahati,"IITG, Guwahati - PCBA","07-04-2025 18:00:00",26.2028636,91.70046436,PM2.5,59,121,88
India,Assam,Guwahati,"IITG, Guwahati - PCBA","07-04-2025 18:00:00",26.2028636,91.70046436,PM10,88,203,115
India,Assam,Guwahati,"IITG, Guwahati - PCBA","07-04-2025 18:00:00",26.2028636,91.70046436,NO2,1,3,1
India,Assam,Guwahati,"IITG, Guwahati - PCBA","07-04-2025 18:00:00",26.2028636,91.70046436,CO,11,16,12
India,Assam,Guwahati,"IITG, Guwahati - PCBA","07-04-2025 18:00:00",26.2028636,91.70046436,OZONE,3,59,44
India,Assam,Guwahati,"LGBI Airport, Guwahati - PCBA","07-04-2025 18:00:00",26.10887,91.589544,CO,20,39,30
India,Andhra_Pradesh,Amaravati,"Secretariat, Amaravati - APPCB","07-04-2025 18:00:00",16.5150833,80.5181667,NO2,20,30,25
India,Andhra_Pradesh,Amaravati,"Secretariat, Amaravati - APPCB","07-04-2025 18:00:00",16.5150833,80.5181667,NH3,3,4,3
India,Andhra_Pradesh,Amaravati,"Secretariat, Amaravati - APPCB","07-04-2025 18:00:00",16.5150833,80.5181667,SO2,10,13,11
India,Andhra_Pradesh,Amaravati,"Secretariat, Amaravati - APPCB","07-04-2025 18:00:00",16.5150833,80.5181667,OZONE,2,68,33
India,Andhra_Pradesh,Anantapur,"Gulzarpet, Anantapur - APPCB","07-04-2025 18:00:00",14.675886,77.593027,PM10,61,98,77
India,Andhra_Pradesh,Anantapur,"Gulzarpet, Anantapur - APPCB","07-04-2025 18:00:00",14.675886,77.593027,NH3,7,14,9
India,Andhra_Pradesh,Tirupati,"Vaikuntapuram, Tirupati - APPCB","07-04-2025 18:00:00",13.615387,79.409230,OZONE,41,113,74
India,Andhra_Pradesh,Vijayawada,"HB Colony, Vijayawada - APPCB","07-04-2025 18:00:00",16.536107,80.594233,NO2,13,19,14
India,Andhra_Pradesh,Vijayawada,"HB Colony, Vijayawada - APPCB","07-04-2025 18:00:00",16.536107,80.594233,SO2,6,93,10
India,Andhra_Pradesh,Vijayawada,"Rajiv Gandhi Park, Vijayawada - APPCB","07-04-2025 18:00:00",16.509717,80.612222,NO2,NA,NA,NA
India,Andhra_Pradesh,Vijayawada,"Rajiv Gandhi Park, Vijayawada - APPCB","07-04-2025 18:00:00",16.509717,80.612222,NH3,NA,NA,NA
India,Andhra_Pradesh,Rajamahendravaram,"Anand Kala Kshetram, Rajamahendravaram - APPCB","07-04-2025 18:00:00",16.9872867,81.7363176,SO2,9,12,11
India,Andhra_Pradesh,Tirumala,"Toll Gate, Tirumala - APPCB (Formerly known as Tirumala, Tirupati - APPCB)","07-04-2025 18:00:00",13.67,79.35,PM2.5,14,68,44
India,Andhra_Pradesh,Anantapur,"Gulzarpet, Anantapur - APPCB","07-04-2025 18:00:00",14.675886,77.593027,CO,12,20,18
India,Andhra_Pradesh,Kadapa,"Yerramukkapalli, Kadapa - APPCB","07-04-2025 18:00:00",14.465052,78.824187,CO,32,36,34
India,"Andaman and Nicobar","Sri Vijaya Puram","Police Line, Sri Vijaya Puram - ANPCC","07-04-2025 18:00:00",11.654054,92.734055,NO2,16,28,23
India,"Andaman and Nicobar","Sri Vijaya Puram","Police Line, Sri Vijaya Puram - ANPCC","07-04-2025 18:00:00",11.654054,92.734055,NH3,1,1,1
India,Andhra_Pradesh,Vijayawada,"Rajiv Nagar, Vijayawada - APPCB","07-04-2025 18:00:00",16.554731,80.649110,PM2.5,47,65,55
India,Andhra_Pradesh,Vijayawada,"Rajiv Nagar, Vijayawada - APPCB","07-04-2025 18:00:00",16.554731,80.649110,NO2,22,26,23
India,Andhra_Pradesh,Visakhapatnam,"GVM Corporation, Visakhapatnam - APPCB","07-04-2025 18:00:00",17.72,83.3,NH3,NA,NA,NA
India,Andhra_Pradesh,Visakhapatnam,"GVM Corporation, Visakhapatnam - APPCB","07-04-2025 18:00:00",17.72,83.3,SO2,NA,NA,NA
India,"Andaman and Nicobar","Sri Vijaya Puram","Police Line, Sri Vijaya Puram - ANPCC","07-04-2025 18:00:00",11.654054,92.734055,CO,12,40,14
India,Andhra_Pradesh,Vijayawada,"Rajiv Nagar, Vijayawada - APPCB","07-04-2025 18:00:00",16.554731,80.649110,SO2,1,21,12
India,Bihar,Araria,"Kharahiya Basti, Araria - BSPCB","07-04-2025 18:00:00",26.146529,87.454184,SO2,27,38,30
India,Bihar,Arrah,"New DM Office, Arrah - BSPCB","07-04-2025 18:00:00",25.5626095,84.663264,SO2,NA,NA,NA
India,Bihar,Aurangabad,"Gurdeo Nagar, Aurangabad - BSPCB","07-04-2025 18:00:00",24.75746,84.366208,SO2,12,24,15
India,Bihar,Begusarai,"Lohiyanagar, Begusarai - BSPCB","07-04-2025 18:00:00",25.42742023,86.13886079,PM10,101,204,147
India,Bihar,Begusarai,"Lohiyanagar, Begusarai - BSPCB","07-04-2025 18:00:00",25.42742023,86.13886079,OZONE,1,10,4
India,Assam,Silchar,"Tarapur, Silchar - PCBA","07-04-2025 18:00:00",24.82827,92.79525,PM2.5,12,68,39
India,Assam,Silchar,"Tarapur, Silchar - PCBA","07-04-2025 18:00:00",24.82827,92.79525,PM10,34,66,51
India,Assam,Silchar,"Tarapur, Silchar - PCBA","07-04-2025 18:00:00",24.82827,92.79525,NO2,2,16,12
India,Assam,Silchar,"Tarapur, Silchar - PCBA","07-04-2025 18:00:00",24.82827,92.79525,OZONE,1,26,15
India,Assam,Sivasagar,"Girls College, Sivasagar - PCBA","07-04-2025 18:00:00",26.987634,94.636574,PM10,52,95,75
India,Assam,Sivasagar,"Girls College, Sivasagar - PCBA","07-04-2025 18:00:00",26.987634,94.636574,NO2,33,53,40
India,Assam,Sivasagar,"Girls College, Sivasagar - PCBA","07-04-2025 18:00:00",26.987634,94.636574,SO2,4,14,8
India,Bihar,"Bihar Sharif","D M Colony, Bihar Sharif - BSPCB","07-04-2025 18:00:00",25.204762,85.514960,PM10,NA,NA,NA
India,Bihar,"Bihar Sharif","D M Colony, Bihar Sharif - BSPCB","07-04-2025 18:00:00",25.204762,85.514960,OZONE,25,53,32
India,Bihar,Buxar,"Charitra Van, Buxar - BSPCB","07-04-2025 18:00:00",25.567520,83.966379,SO2,NA,NA,NA
India,Bihar,Buxar,"Charitra Van, Buxar - BSPCB","07-04-2025 18:00:00",25.567520,83.966379,OZONE,8,87,38
India,Bihar,Chhapra,"Darshan Nagar, Chhapra - BSPCB","07-04-2025 18:00:00",25.7808257,84.7446768,PM2.5,NA,NA,NA
India,Bihar,Chhapra,"Darshan Nagar, Chhapra - BSPCB","07-04-2025 18:00:00",25.7808257,84.7446768,PM10,NA,NA,NA
India,Bihar,Bhagalpur,"DM Office_Kachari Chowk, Bhagalpur - BSPCB","07-04-2025 18:00:00",25.251013,86.989001,PM10,65,126,79
India,Bihar,Bhagalpur,"Mayaganj, Bhagalpur - BSPCB","07-04-2025 18:00:00",25.265194,87.012947,PM2.5,40,300,114
India,Bihar,Bhagalpur,"Mayaganj, Bhagalpur - BSPCB","07-04-2025 18:00:00",25.265194,87.012947,OZONE,2,15,10
India,Bihar,"Bihar Sharif","D M Colony, Bihar Sharif - BSPCB","07-04-2025 18:00:00",25.204762,85.514960,PM2.5,NA,NA,NA
India,Assam,Guwahati,"Railway Colony, Guwahati - PCBA","07-04-2025 18:00:00",26.181742,91.78063,PM2.5,NA,NA,NA
India,Assam,Guwahati,"Railway Colony, Guwahati - PCBA","07-04-2025 18:00:00",26.181742,91.78063,PM10,75,177,108
India,Assam,Guwahati,"Railway Colony, Guwahati - PCBA","07-04-2025 18:00:00",26.181742,91.78063,NO2,3,4,3
India,Assam,Nalbari,"Bata Chowk, Nalbari - PCBA","07-04-2025 18:00:00",26.446912,91.439057,SO2,1,7,3
India,Bihar,Gaya,"Kareemganj, Gaya - BSPCB","07-04-2025 18:00:00",24.792403,84.992416,OZONE,7,30,15
India,Bihar,Gaya,"SFTI Kusdihra, Gaya - BSPCB","07-04-2025 18:00:00",24.762518,84.982348,OZONE,7,53,38
India,Bihar,Hajipur,"Industrial Area, Hajipur - BSPCB","07-04-2025 18:00:00",25.697189,85.245900,PM10,107,138,118
India,Bihar,Gaya,"Kareemganj, Gaya - BSPCB","07-04-2025 18:00:00",24.792403,84.992416,SO2,14,20,18
India,Bihar,Gaya,"Collectorate, Gaya - BSPCB","07-04-2025 18:00:00",24.7955,84.9994,NO2,NA,NA,NA
India,Bihar,Kishanganj,"SDM Office_Khagra, Kishanganj - BSPCB","07-04-2025 18:00:00",26.0881305,87.93840336,OZONE,19,23,20
India,Bihar,Manguraha,"Forest Rest House, Manguraha - BSPCB","07-04-2025 18:00:00",27.308328,84.531742,PM10,NA,NA,NA
India,Bihar,Motihari,"Gandak Colony, Motihari - BSPCB","07-04-2025 18:00:00",26.63086,84.90051,PM2.5,NA,NA,NA
India,Bihar,Munger,"Town Hall, Munger - BSPCB","07-04-2025 18:00:00",25.376776,86.471523,PM10,100,137,121
India,Bihar,Munger,"Town Hall, Munger - BSPCB","07-04-2025 18:00:00",25.376776,86.471523,NO2,21,23,22
India,Bihar,Munger,"Town Hall, Munger - BSPCB","07-04-2025 18:00:00",25.376776,86.471523,NH3,6,9,7
India,Bihar,Muzaffarpur,"Buddha Colony, Muzaffarpur - BSPCB","07-04-2025 18:00:00",26.11442,85.39813,NH3,9,14,12
India,Bihar,Muzaffarpur,"MIT-Daudpur Kothi, Muzaffarpur - BSPCB","07-04-2025 18:00:00",26.1403345,85.3650192,SO2,6,9,8
India,Bihar,Muzaffarpur,"MIT-Daudpur Kothi, Muzaffarpur - BSPCB","07-04-2025 18:00:00",26.1403345,85.3650192,CO,56,100,67
India,Bihar,Patna,"DRM Office Danapur, Patna - BSPCB","07-04-2025 18:00:00",25.586562,85.043586,SO2,2,7,4
India,Bihar,Patna,"DRM Office Danapur, Patna - BSPCB","07-04-2025 18:00:00",25.586562,85.043586,OZONE,10,41,26
India,Bihar,Hajipur,"Industrial Area, Hajipur - BSPCB","07-04-2025 18:00:00",25.697189,85.245900,SO2,3,10,6
India,Bihar,Katihar,"Mirchaibari, Katihar - BSPCB","07-04-2025 18:00:00",25.560083,87.553265,PM2.5,28,67,50
India,Bihar,Patna,"Rajbansi Nagar, Patna - BSPCB","07-04-2025 18:00:00",25.599486,85.113666,SO2,1,2,1
India,Bihar,Patna,"Samanpura, Patna - BSPCB","07-04-2025 18:00:00",25.596727,85.085624,PM2.5,74,207,148
India,Bihar,Patna,"Samanpura, Patna - BSPCB","07-04-2025 18:00:00",25.596727,85.085624,NO2,40,51,45
India,Bihar,Patna,"Samanpura, Patna - BSPCB","07-04-2025 18:00:00",25.596727,85.085624,SO2,4,6,4
India,Bihar,Patna,"Govt. High School Shikarpur, Patna - BSPCB","07-04-2025 18:00:00",25.592539,85.227158,NO2,5,10,7
India,Bihar,Patna,"IGSC Planetarium Complex, Patna - BSPCB","07-04-2025 18:00:00",25.610369,85.132568,NO2,13,13,13
India,Bihar,Katihar,"Mirchaibari, Katihar - BSPCB","07-04-2025 18:00:00",25.560083,87.553265,OZONE,3,23,17
India,Bihar,Katihar,"Mirchaibari, Katihar - BSPCB","07-04-2025 18:00:00",25.560083,87.553265,SO2,15,26,18
India,Chandigarh,Chandigarh,"Sector-53, Chandigarh - CPCC","07-04-2025 18:00:00",30.719859,76.738637,PM10,47,140,101
India,Chandigarh,Chandigarh,"Sector-53, Chandigarh - CPCC","07-04-2025 18:00:00",30.719859,76.738637,NO2,20,162,74
India,Chandigarh,Chandigarh,"Sector-53, Chandigarh - CPCC","07-04-2025 18:00:00",30.719859,76.738637,CO,26,109,49
India,Chhattisgarh,Bhilai,"32Bungalows, Bhilai - CECB","07-04-2025 18:00:00",21.194815,81.314770,NH3,3,4,4
India,Chhattisgarh,Bhilai,"Civic Center, Bhilai - Bhilai Steel Plant","07-04-2025 18:00:00",21.185571,81.343175,PM2.5,19,45,31
India,Chhattisgarh,Bhilai,"Civic Center, Bhilai - Bhilai Steel Plant","07-04-2025 18:00:00",21.185571,81.343175,NO2,6,9,8
India,Chhattisgarh,Bhilai,"Civic Center, Bhilai - Bhilai Steel Plant","07-04-2025 18:00:00",21.185571,81.343175,NH3,2,2,2
India,Bihar,Sasaram,"Dada Peer, Sasaram - BSPCB","07-04-2025 18:00:00",24.952822,84.002396,SO2,4,5,5
India,Bihar,Siwan,"Chitragupta Nagar, Siwan - BSPCB","07-04-2025 18:00:00",26.2271665,84.3570427,NH3,1,2,2
India,Chandigarh,Chandigarh,"Sector 22, Chandigarh - CPCC","07-04-2025 18:00:00",30.735567,76.775714,PM2.5,40,160,95
India,Chhattisgarh,Bhilai,"Hathkhoj, Bhilai - CECB","07-04-2025 18:00:00",21.224231,81.408350,NH3,3,5,4
India,Chhattisgarh,Bilaspur,"Mangala, Bilaspur - NTPC","07-04-2025 18:00:00",22.08815,82.13737,PM2.5,NA,NA,NA
India,Chandigarh,Chandigarh,"Sector 22, Chandigarh - CPCC","07-04-2025 18:00:00",30.735567,76.775714,NO2,36,204,100
India,Chandigarh,Chandigarh,"Sector 22, Chandigarh - CPCC","07-04-2025 18:00:00",30.735567,76.775714,SO2,13,40,25
India,Chandigarh,Chandigarh,"Sector 22, Chandigarh - CPCC","07-04-2025 18:00:00",30.735567,76.775714,OZONE,4,242,177
India,Chhattisgarh,Chhal,"Nawapara SECL Colony, Chhal - CECB","07-04-2025 18:00:00",22.118125,83.140608,NO2,11,31,19
India,Chhattisgarh,Korba,"Rampur, Korba - CECB","07-04-2025 18:00:00",22.368195,82.746431,PM2.5,NA,NA,NA
India,Bihar,Purnia,"Mariam Nagar, Purnia - BSPCB","07-04-2025 18:00:00",25.366336,87.117468,PM10,48,116,86
India,Bihar,Purnia,"Mariam Nagar, Purnia - BSPCB","07-04-2025 18:00:00",25.366336,87.117468,SO2,16,17,17
India,Chandigarh,Chandigarh,"Sector-25, Chandigarh - CPCC","07-04-2025 18:00:00",30.751462,76.762879,OZONE,1,102,78
India,Bihar,Saharsa,"Police Line, Saharsa - BSPCB","07-04-2025 18:00:00",25.892357,86.590325,OZONE,10,47,44
India,Chhattisgarh,Korba,"Rampur, Korba - CECB","07-04-2025 18:00:00",22.368195,82.746431,OZONE,8,29,17
India,Chhattisgarh,Kunjemura,"OP Jindal School, Kunjemura - CECB","07-04-2025 18:00:00",22.126650,83.483212,NO2,33,51,40
India,Chhattisgarh,Kunjemura,"OP Jindal School, Kunjemura - CECB","07-04-2025 18:00:00",22.126650,83.483212,CO,22,72,41
India,Chhattisgarh,Milupara,"Govt. Higher Secondary School, Milupara - CECB","07-04-2025 18:00:00",22.1910172,83.5197009,PM2.5,25,66,46
India,Chhattisgarh,Raipur,"AIIMS, Raipur - CECB","07-04-2025 18:00:00",21.258815,81.578979,NH3,7,7,7
India,Chhattisgarh,Raipur,"AIIMS, Raipur - CECB","07-04-2025 18:00:00",21.258815,81.578979,CO,22,40,35
India,Chhattisgarh,Raipur,"Bhatagaon New ISBT, Raipur - CECB","07-04-2025 18:00:00",21.219665,81.630094,PM2.5,7,90,41
India,Chhattisgarh,Raipur,"Bhatagaon New ISBT, Raipur - CECB","07-04-2025 18:00:00",21.219665,81.630094,PM10,50,100,74
India,Chhattisgarh,Raipur,"Bhatagaon New ISBT, Raipur - CECB","07-04-2025 18:00:00",21.219665,81.630094,CO,21,78,34
India,Chhattisgarh,Raipur,"Krishak Nagar, Raipur - CECB","07-04-2025 18:00:00",21.237755,81.705301,PM2.5,1,2,2
India,Delhi,Delhi,"Chandni Chowk, Delhi - IITM","07-04-2025 18:00:00",28.656756,77.227234,CO,30,174,58
India,Delhi,Delhi,"DTU, Delhi - CPCB","07-04-2025 18:00:00",28.7500499,77.1112615,PM10,103,426,261
India,Delhi,Delhi,"DTU, Delhi - CPCB","07-04-2025 18:00:00",28.7500499,77.1112615,NO2,30,70,48
India,Delhi,Delhi,"DTU, Delhi - CPCB","07-04-2025 18:00:00",28.7500499,77.1112615,CO,26,94,54
India,Delhi,Delhi,"Dr. Karni Singh Shooting Range, Delhi - DPCC","07-04-2025 18:00:00",28.498571,77.264840,PM2.5,57,423,216
India,Delhi,Delhi,"Dr. Karni Singh Shooting Range, Delhi - DPCC","07-04-2025 18:00:00",28.498571,77.264840,SO2,17,83,42
India,Delhi,Delhi,"Dwarka-Sector 8, Delhi - DPCC ","07-04-2025 18:00:00",28.5710274,77.0719006,PM2.5,48,355,219
India,Delhi,Delhi,"Dwarka-Sector 8, Delhi - DPCC ","07-04-2025 18:00:00",28.5710274,77.0719006,OZONE,5,220,220
India,Delhi,Delhi,"IGI Airport (T3), Delhi - IMD","07-04-2025 18:00:00",28.5627763,77.1180053,PM2.5,3,307,90
India,Delhi,Delhi,"Bawana, Delhi - DPCC","07-04-2025 18:00:00",28.776200,77.051074,OZONE,5,306,242
India,Delhi,Delhi,"Burari Crossing, Delhi - IMD","07-04-2025 18:00:00",28.7256504,77.2011573,NO2,1,42,17
India,Delhi,Delhi,"Burari Crossing, Delhi - IMD","07-04-2025 18:00:00",28.7256504,77.2011573,CO,28,99,52
India,Chhattisgarh,Raipur,"Krishak Nagar, Raipur - CECB","07-04-2025 18:00:00",21.237755,81.705301,CO,22,49,39
India,Chhattisgarh,Raipur,"Siltara Phase-II, Raipur - CECB","07-04-2025 18:00:00",21.371751,81.664929,NH3,NA,NA,NA
India,Chhattisgarh,Tumidih,"OP Jindal Industrial Park, Tumidih - CECB","07-04-2025 18:00:00",22.06631475,83.33820077,OZONE,4,85,71
India,Chhattisgarh,Raipur,"Siltara Phase-II, Raipur - CECB","07-04-2025 18:00:00",21.371751,81.664929,OZONE,4,53,35
India,Delhi,Delhi,"Anand Vihar, Delhi - DPCC","07-04-2025 18:00:00",28.647622,77.3158090,OZONE,1,33,23
India,Delhi,Delhi,"Ashok Vihar, Delhi - DPCC","07-04-2025 18:00:00",28.695381,77.181665,CO,17,132,30
India,Delhi,Delhi,"Mandir Marg, Delhi - DPCC","07-04-2025 18:00:00",28.636429,77.201067,PM2.5,22,345,158
India,Delhi,Delhi,"Mandir Marg, Delhi - DPCC","07-04-2025 18:00:00",28.636429,77.201067,CO,3,84,16
India,Delhi,Delhi,"Mundka, Delhi - DPCC","07-04-2025 18:00:00",28.684678,77.076574,SO2,6,44,21
India,Delhi,Delhi,"NSIT Dwarka, Delhi - CPCB","07-04-2025 18:00:00",28.60909,77.0325413,OZONE,15,77,55
India,Delhi,Delhi,"Najafgarh, Delhi - DPCC","07-04-2025 18:00:00",28.570173,76.933762,PM10,63,268,184
India,Delhi,Delhi,"Najafgarh, Delhi - DPCC","07-04-2025 18:00:00",28.570173,76.933762,SO2,7,21,15
India,Delhi,Delhi,"Najafgarh, Delhi - DPCC","07-04-2025 18:00:00",28.570173,76.933762,CO,18,80,51
India,Delhi,Delhi,"Narela, Delhi - DPCC","07-04-2025 18:00:00",28.822836,77.101981,NO2,19,104,51
India,Delhi,Delhi,"Narela, Delhi - DPCC","07-04-2025 18:00:00",28.822836,77.101981,CO,8,88,18
India,Delhi,Delhi,"Nehru Nagar, Delhi - DPCC","07-04-2025 18:00:00",28.567890,77.250515,PM10,97,430,242
India,Delhi,Delhi,"Nehru Nagar, Delhi - DPCC","07-04-2025 18:00:00",28.567890,77.250515,NO2,19,104,60
India,Delhi,Delhi,"Nehru Nagar, Delhi - DPCC","07-04-2025 18:00:00",28.567890,77.250515,CO,2,120,17
India,Delhi,Delhi,"IGI Airport (T3), Delhi - IMD","07-04-2025 18:00:00",28.5627763,77.1180053,CO,38,113,62
India,Delhi,Delhi,"IHBAS, Dilshad Garden, Delhi - CPCB","07-04-2025 18:00:00",28.6811736,77.3025234,OZONE,9,60,47
India,Delhi,Delhi,"ITO, Delhi - CPCB","07-04-2025 18:00:00",28.628624,77.241060,PM10,77,332,175
India,Delhi,Delhi,"Pusa, Delhi - DPCC","07-04-2025 18:00:00",28.639652,77.146275,PM2.5,40,311,132
India,Delhi,Delhi,"Pusa, Delhi - DPCC","07-04-2025 18:00:00",28.639652,77.146275,OZONE,1,77,41
India,Delhi,Delhi,"Pusa, Delhi - IMD","07-04-2025 18:00:00",28.636110,77.173332,NO2,NA,NA,NA
India,Delhi,Delhi,"Jawaharlal Nehru Stadium, Delhi - DPCC","07-04-2025 18:00:00",28.580280,77.233829,PM10,80,404,215
India,Delhi,Delhi,"Jawaharlal Nehru Stadium, Delhi - DPCC","07-04-2025 18:00:00",28.580280,77.233829,NO2,53,221,143
India,Delhi,Delhi,"Jawaharlal Nehru Stadium, Delhi - DPCC","07-04-2025 18:00:00",28.580280,77.233829,CO,45,144,63
India,Delhi,Delhi,"Punjabi Bagh, Delhi - DPCC","07-04-2025 18:00:00",28.674045,77.131023,PM2.5,58,393,245
India,Delhi,Delhi,"Punjabi Bagh, Delhi - DPCC","07-04-2025 18:00:00",28.674045,77.131023,NO2,20,101,72
India,Delhi,Delhi,"IGI Airport (T3), Delhi - IMD","07-04-2025 18:00:00",28.5627763,77.1180053,NO2,87,142,116
India,Delhi,Delhi,"Okhla Phase-2, Delhi - DPCC","07-04-2025 18:00:00",28.530785,77.271255,PM2.5,63,413,254
India,Delhi,Delhi,"Okhla Phase-2, Delhi - DPCC","07-04-2025 18:00:00",28.530785,77.271255,OZONE,7,316,315
India,Gujarat,Ahmedabad,"SVPI Airport Hansol, Ahmedabad - IITM","07-04-2025 18:00:00",23.076793,72.627874,SO2,1,12,4
India,Gujarat,Ahmedabad,"SVPI Airport Hansol, Ahmedabad - IITM","07-04-2025 18:00:00",23.076793,72.627874,OZONE,1,50,42
India,Gujarat,Ahmedabad,"Sardar Vallabhbhai Patel Stadium, Ahmedabad - IITM","07-04-2025 18:00:00",23.043070,72.562968,PM10,49,98,69
India,Gujarat,Ankleshwar,"GIDC, Ankleshwar - GPCB","07-04-2025 18:00:00",21.613267,73.010555,NO2,81,106,93
India,Gujarat,Gandhinagar,"GIFT City, Gandhinagar - IITM","07-04-2025 18:00:00",23.163798,72.677768,NH3,5,18,8
India,Gujarat,Gandhinagar,"IIPHG Lekawada, Gandhinagar - IITM","07-04-2025 18:00:00",23.243639,72.68994,CO,2,105,43
India,Delhi,Delhi,"Vivek Vihar, Delhi - DPCC","07-04-2025 18:00:00",28.672342,77.315260,NO2,23,113,64
India,Delhi,Delhi,"Vivek Vihar, Delhi - DPCC","07-04-2025 18:00:00",28.672342,77.315260,SO2,1,52,26
India,Delhi,Delhi,"Wazirpur, Delhi - DPCC","07-04-2025 18:00:00",28.699793,77.165453,PM10,NA,NA,NA
India,Gujarat,Ahmedabad,"Chandkheda, Ahmedabad - IITM","07-04-2025 18:00:00",23.107969,72.574648,NO2,36,102,58
India,Gujarat,Ahmedabad,"Chandkheda, Ahmedabad - IITM","07-04-2025 18:00:00",23.107969,72.574648,SO2,9,37,16
India,Gujarat,Ahmedabad,"Gyaspur, Ahmedabad - IITM","07-04-2025 18:00:00",22.977134,72.553024,PM10,56,353,126
India,Gujarat,Ahmedabad,"Gyaspur, Ahmedabad - IITM","07-04-2025 18:00:00",22.977134,72.553024,NO2,9,82,32
India,Gujarat,Ahmedabad,"Gyaspur, Ahmedabad - IITM","07-04-2025 18:00:00",22.977134,72.553024,OZONE,1,88,56
India,Delhi,Delhi,"R K Puram, Delhi - DPCC","07-04-2025 18:00:00",28.563262,77.186937,SO2,12,86,58
India,Delhi,Delhi,"Rohini, Delhi - DPCC","07-04-2025 18:00:00",28.732528,77.119920,SO2,8,29,18
India,Delhi,Delhi,"Rohini, Delhi - DPCC","07-04-2025 18:00:00",28.732528,77.119920,CO,20,163,28
India,Delhi,Delhi,"Shadipur, Delhi - CPCB","07-04-2025 18:00:00",28.6514781,77.1473105,PM2.5,134,500,349
India,Delhi,Delhi,"Sirifort, Delhi - CPCB","07-04-2025 18:00:00",28.5504249,77.2159377,SO2,27,76,44
India,Delhi,Delhi,"Sonia Vihar, Delhi - DPCC","07-04-2025 18:00:00",28.710508,77.249485,NO2,16,131,63
India,Gujarat,Gandhinagar,"Sector-10, Gandhinagar - GPCB","07-04-2025 18:00:00",23.221714,72.654328,NH3,5,6,5
India,Gujarat,Gandhinagar,"Sector-10, Gandhinagar - GPCB","07-04-2025 18:00:00",23.221714,72.654328,OZONE,22,23,22
India,Gujarat,Nandesari,"GIDC, Nandesari - Nandesari Ind. Association","07-04-2025 18:00:00",22.410802,73.097923,PM2.5,NA,NA,NA
India,Gujarat,Vapi,"Phase-1 GIDC, Vapi - GPCB","07-04-2025 18:00:00",20.362421,72.918013,OZONE,2,2,2
India,Gujarat,Vatva,"Phase-4 GIDC, Vatva - GPCB","07-04-2025 18:00:00",22.969611,72.643500,CO,52,100,53
India,Gujarat,Ahmedabad,"Raikhad, Ahmedabad - IITM","07-04-2025 18:00:00",23.020509,72.579261,CO,4,125,9
India,Gujarat,Ahmedabad,"Rakhial, Ahmedabad - IITM","07-04-2025 18:00:00",23.016834,72.625775,OZONE,2,107,82
India,Gujarat,Ahmedabad,"SAC ISRO Satellite, Ahmedabad - IITM","07-04-2025 18:00:00",23.023389,72.515201,PM10,NA,NA,NA
India,Gujarat,Ahmedabad,"SVPI Airport Hansol, Ahmedabad - IITM","07-04-2025 18:00:00",23.076793,72.627874,PM10,43,203,82
India,Gujarat,Ahmedabad,"Maninagar, Ahmedabad - GPCB","07-04-2025 18:00:00",23.002657,72.591912,SO2,26,78,41
India,Gujarat,Ahmedabad,"Maninagar, Ahmedabad - GPCB","07-04-2025 18:00:00",23.002657,72.591912,OZONE,3,34,32
India,Delhi,Delhi,"Sri Aurobindo Marg, Delhi - DPCC","07-04-2025 18:00:00",28.531346,77.190156,PM2.5,50,358,167
India,Delhi,Delhi,"Sri Aurobindo Marg, Delhi - DPCC","07-04-2025 18:00:00",28.531346,77.190156,OZONE,9,298,255
India,"Himachal Pradesh",Baddi,"HIMUDA Complex Phase-1, Baddi - HPPCB","07-04-2025 18:00:00",30.943887,76.801991,PM10,50,288,114
India,Haryana,Gurugram,"NISE Gwal Pahari, Gurugram - IMD","07-04-2025 18:00:00",28.422681,77.148944,PM10,33,221,115
India,Karnataka,Dharwad,"Kalabhavan, Dharwad - KSPCB","07-04-2025 18:00:00",15.459706,75.008381,NH3,4,5,4
India,Karnataka,Gadag,"Panchal Nagar, Gadag - KSPCB","07-04-2025 18:00:00",15.411456,75.638133,PM2.5,7,19,11
India,Karnataka,Gadag,"Panchal Nagar, Gadag - KSPCB","07-04-2025 18:00:00",15.411456,75.638133,PM10,38,57,47
India,Karnataka,Hubballi,"Lingaraj Nagar, Hubballi - KSPCB","07-04-2025 18:00:00",15.3714823,75.1160168,PM2.5,36,38,37
India,Karnataka,Hubballi,"Lingaraj Nagar, Hubballi - KSPCB","07-04-2025 18:00:00",15.3714823,75.1160168,NO2,7,12,11
India,Karnataka,Hubballi,"Lingaraj Nagar, Hubballi - KSPCB","07-04-2025 18:00:00",15.3714823,75.1160168,CO,6,18,9
India,Karnataka,Kalaburagi,"Mahatma Basaveswar Colony, Kalaburgi - KSPCB","07-04-2025 18:00:00",17.336318,76.847397,NH3,2,4,3
India,Karnataka,Bengaluru,"Kasturi Nagar, Bengaluru - KSPCB","07-04-2025 18:00:00",13.003872,77.664217,OZONE,29,29,29
India,Karnataka,Bengaluru,"Peenya, Bengaluru - CPCB","07-04-2025 18:00:00",13.0270199,77.494094,SO2,3,16,8
India,Karnataka,Bengaluru,"Peenya, Bengaluru - CPCB","07-04-2025 18:00:00",13.0270199,77.494094,OZONE,2,93,50
India,Karnataka,Bengaluru,"RVCE-Mailasandra, Bengaluru - KSPCB","07-04-2025 18:00:00",12.921418,77.502466,PM2.5,56,72,60
India,Karnataka,Bengaluru,"RVCE-Mailasandra, Bengaluru - KSPCB","07-04-2025 18:00:00",12.921418,77.502466,NO2,18,34,24
India,Karnataka,Bengaluru,"RVCE-Mailasandra, Bengaluru - KSPCB","07-04-2025 18:00:00",12.921418,77.502466,NH3,2,4,3
India,Karnataka,Bengaluru,"Shivapura_Peenya, Bengaluru - KSPCB","07-04-2025 18:00:00",13.0246342,77.5080115,PM2.5,38,54,46
India,Karnataka,Bengaluru,"Hombegowda Nagar, Bengaluru - KSPCB","07-04-2025 18:00:00",12.938539,77.590100,PM2.5,34,78,53
India,Karnataka,Bengaluru,"Hombegowda Nagar, Bengaluru - KSPCB","07-04-2025 18:00:00",12.938539,77.590100,SO2,11,23,16
India,Karnataka,Bengaluru,"Hombegowda Nagar, Bengaluru - KSPCB","07-04-2025 18:00:00",12.938539,77.590100,OZONE,NA,NA,NA
India,Karnataka,Bengaluru,"Jayanagar 5th Block, Bengaluru - KSPCB","07-04-2025 18:00:00",12.920984,77.584908,PM2.5,37,67,55
India,Karnataka,Bengaluru,"Jigani, Bengaluru - KSPCB","07-04-2025 18:00:00",12.7816279,77.6299145,PM2.5,NA,NA,NA
India,Karnataka,Bengaluru,"Jigani, Bengaluru - KSPCB","07-04-2025 18:00:00",12.7816279,77.6299145,NH3,NA,NA,NA
India,Jharkhand,Dhanbad,"Sardar Patel Nagar, Dhanbad - JSPCB","07-04-2025 18:00:00",23.80569,86.44268,CO,1,2,2
India,Karnataka,Bagalkot,"Vidayagiri, Bagalkot - KSPCB","07-04-2025 18:00:00",16.172806,75.659694,PM2.5,33,34,34
India,Karnataka,Bagalkot,"Vidayagiri, Bagalkot - KSPCB","07-04-2025 18:00:00",16.172806,75.659694,SO2,7,7,7
India,Karnataka,Bengaluru,"City Railway Station, Bengaluru - KSPCB","07-04-2025 18:00:00",12.9756843,77.5660749,NO2,32,37,34
India,Karnataka,Koppal,"Diwator Nagar, Koppal - KSPCB","07-04-2025 18:00:00",15.347630,76.181767,SO2,9,28,18
India,Karnataka,Koppal,"Diwator Nagar, Koppal - KSPCB","07-04-2025 18:00:00",15.347630,76.181767,CO,24,44,26
India,Karnataka,Madikeri,"Stuart Hill, Madikeri - KSPCB","07-04-2025 18:00:00",12.415911,75.735050,SO2,4,4,4
India,Karnataka,Mangalore,"Kadri, Mangalore - KSPCB","07-04-2025 18:00:00",12.889250,74.853000,NO2,5,8,7
India,Karnataka,Bidar,"Naubad, Bidar - KSPCB","07-04-2025 18:00:00",17.930306,77.482194,CO,30,34,32
India,Karnataka,Chikkamagaluru,"Kalyana Nagara, Chikkamagaluru - KSPCB","07-04-2025 18:00:00",13.328028,75.797056,NH3,NA,NA,NA
India,Karnataka,Chikkamagaluru,"Kalyana Nagara, Chikkamagaluru - KSPCB","07-04-2025 18:00:00",13.328028,75.797056,SO2,NA,NA,NA
India,Karnataka,Chikkamagaluru,"Kalyana Nagara, Chikkamagaluru - KSPCB","07-04-2025 18:00:00",13.328028,75.797056,OZONE,12,20,20
India,"Himachal Pradesh",Baddi,"HIMUDA Complex Phase-1, Baddi - HPPCB","07-04-2025 18:00:00",30.943887,76.801991,SO2,10,113,43
India,Jammu_and_Kashmir,Srinagar,"Rajbagh, Srinagar - JKSPCB","07-04-2025 18:00:00",34.066206,74.819820,PM10,46,84,64
India,Karnataka,Bengaluru,"Jigani, Bengaluru - KSPCB","07-04-2025 18:00:00",12.7816279,77.6299145,CO,32,38,33
India,Karnataka,Bengaluru,"Kasturi Nagar, Bengaluru - KSPCB","07-04-2025 18:00:00",13.003872,77.664217,PM2.5,NA,NA,NA
India,Karnataka,Kalaburagi,"Mahatma Basaveswar Colony, Kalaburgi - KSPCB","07-04-2025 18:00:00",17.336318,76.847397,OZONE,1,23,18
India,Karnataka,Mysuru,"Hebbal 1st Stage, Mysuru - KSPCB","07-04-2025 18:00:00",12.21041,76.37376,SO2,1,48,13
India,Karnataka,Mysuru,"Hebbal 1st Stage, Mysuru - KSPCB","07-04-2025 18:00:00",12.21041,76.37376,CO,1,34,17
India,Karnataka,Ramanagara,"Vijay Nagar, Ramanagara - KSPCB","07-04-2025 18:00:00",12.733409,77.298051,PM2.5,NA,NA,NA
India,Karnataka,Ramanagara,"Vijay Nagar, Ramanagara - KSPCB","07-04-2025 18:00:00",12.733409,77.298051,NO2,NA,NA,NA
India,Karnataka,Ramanagara,"Vijay Nagar, Ramanagara - KSPCB","07-04-2025 18:00:00",12.733409,77.298051,NH3,NA,NA,NA
India,Karnataka,Ramanagara,"Vijay Nagar, Ramanagara - KSPCB","07-04-2025 18:00:00",12.733409,77.298051,SO2,NA,NA,NA
India,Karnataka,Shivamogga,"Vinoba Nagara, Shivamogga - KSPCB","07-04-2025 18:00:00",13.940000,75.555917,PM2.5,27,43,37
India,Karnataka,Yadgir,"Collector Office, Yadgir - KSPCB","07-04-2025 18:00:00",16.7602,77.1428,PM2.5,37,61,45
India,Karnataka,Yadgir,"Collector Office, Yadgir - KSPCB","07-04-2025 18:00:00",16.7602,77.1428,SO2,3,22,14
India,Kerala,Kannur,"Thavakkara, Kannur - Kerala PCB","07-04-2025 18:00:00",11.875000,75.373200,NH3,1,2,1
India,Kerala,Thiruvananthapuram,"Kariavattom, Thiruvananthapuram - Kerala PCB","07-04-2025 18:00:00",8.563700,76.886500,PM2.5,38,49,44
India,Kerala,Thiruvananthapuram,"Kariavattom, Thiruvananthapuram - Kerala PCB","07-04-2025 18:00:00",8.563700,76.886500,NO2,6,7,7
India,Kerala,Thiruvananthapuram,"Plammoodu, Thiruvananthapuram - Kerala PCB","07-04-2025 18:00:00",8.5149093,76.9435879,PM2.5,12,78,32
India,Kerala,Thiruvananthapuram,"Plammoodu, Thiruvananthapuram - Kerala PCB","07-04-2025 18:00:00",8.5149093,76.9435879,NO2,7,17,11
India,Kerala,Thrissur,"Corporation Ground, Thrissur - Kerala PCB","07-04-2025 18:00:00",10.532400,76.215900,PM2.5,43,54,50
India,"Madhya Pradesh",Dewas,"Bhopal Chauraha, Dewas - MPPCB","07-04-2025 18:00:00",22.9682591,76.064118,NH3,4,9,7
India,"Madhya Pradesh",Gwalior,"City Center, Gwalior - MPPCB","07-04-2025 18:00:00",26.203442,78.193251,PM2.5,20,176,97
India,"Madhya Pradesh",Gwalior,"City Center, Gwalior - MPPCB","07-04-2025 18:00:00",26.203442,78.193251,PM10,62,266,139
India,"Madhya Pradesh",Indore,"Airport Area, Indore - IMC","07-04-2025 18:00:00",22.7289,75.8076,PM10,65,132,101
India,Karnataka,Mangalore,"Kadri, Mangalore - KSPCB","07-04-2025 18:00:00",12.889250,74.853000,CO,25,34,29
India,Karnataka,Mysuru,"Hebbal 1st Stage, Mysuru - KSPCB","07-04-2025 18:00:00",12.21041,76.37376,PM10,30,86,47
India,"Madhya Pradesh",Bhopal,"Paryavaran Parisar, Bhopal - MPPCB","07-04-2025 18:00:00",23.210494,77.425409,NO2,17,109,50
India,"Madhya Pradesh",Bhopal,"Paryavaran Parisar, Bhopal - MPPCB","07-04-2025 18:00:00",23.210494,77.425409,OZONE,10,62,49
India,"Madhya Pradesh",Damoh,"Shrivastav Colony, Damoh - MPPCB","07-04-2025 18:00:00",23.81748678,79.446246,PM10,22,104,51
India,Kerala,Thrissur,"Corporation Ground, Thrissur - Kerala PCB","07-04-2025 18:00:00",10.532400,76.215900,CO,24,32,30
India,"Madhya Pradesh",Bhopal,"Idgah Hills, Bhopal - MPPCB","07-04-2025 18:00:00",23.264759,77.381568,CO,14,78,29
India,"Madhya Pradesh",Indore,"Chhoti Gwaltoli, Indore - MPPCB","07-04-2025 18:00:00",22.4310,75.5213,SO2,8,22,16
India,"Madhya Pradesh",Jabalpur,"Marhatal, Jabalpur - MPPCB","07-04-2025 18:00:00",23.168606,79.932247,NH3,2,3,3
India,"Madhya Pradesh",Jabalpur,"Suhagi, Jabalpur - JMC","07-04-2025 18:00:00",23.218135,79.957770,NO2,21,112,54
India,"Madhya Pradesh",Jabalpur,"Suhagi, Jabalpur - JMC","07-04-2025 18:00:00",23.218135,79.957770,NH3,2,18,4
India,"Madhya Pradesh",Jabalpur,"Suhagi, Jabalpur - JMC","07-04-2025 18:00:00",23.218135,79.957770,SO2,14,53,29
India,"Madhya Pradesh",Jabalpur,"Suhagi, Jabalpur - JMC","07-04-2025 18:00:00",23.218135,79.957770,CO,24,117,34
India,"Madhya Pradesh",Katni,"Gole Bazar, Katni - MPPCB","07-04-2025 18:00:00",23.50016,80.23284,PM10,64,240,108
India,"Madhya Pradesh",Katni,"Gole Bazar, Katni - MPPCB","07-04-2025 18:00:00",23.50016,80.23284,NO2,10,115,47
India,"Madhya Pradesh",Katni,"Gole Bazar, Katni - MPPCB","07-04-2025 18:00:00",23.50016,80.23284,CO,27,114,31
India,"Madhya Pradesh",Maihar,"Sahilara, Maihar - KJS Cements","07-04-2025 18:00:00",24.2613009,80.7231783,NO2,11,11,11
India,Maharashtra,Ahmednagar,"Tarakpur, Ahmednagar - MPCB","07-04-2025 18:00:00",19.10122,74.73339,NH3,4,14,7
India,Maharashtra,Amravati,"Shivneri Colony, Amravati - MPCB","07-04-2025 18:00:00",20.9402359,77.7895248,PM10,82,124,102
India,Maharashtra,Amravati,"Shivneri Colony, Amravati - MPCB","07-04-2025 18:00:00",20.9402359,77.7895248,SO2,8,12,9
India,Maharashtra,Amravati,"Shri Shivaji Science College, Amaravati - MPCB","07-04-2025 18:00:00",20.939198,77.765701,PM10,57,122,93
India,Maharashtra,Amravati,"Shri Shivaji Science College, Amaravati - MPCB","07-04-2025 18:00:00",20.939198,77.765701,NH3,1,12,4
India,Maharashtra,Amravati,"Shri Shivaji Science College, Amaravati - MPCB","07-04-2025 18:00:00",20.939198,77.765701,CO,11,108,25
India,Maharashtra,Aurangabad,"MIDC Chilkalthana, Aurangabad - MPCB","07-04-2025 18:00:00",19.875620,75.387310,NO2,9,105,37
India,Maharashtra,Aurangabad,"MIDC Chilkalthana, Aurangabad - MPCB","07-04-2025 18:00:00",19.875620,75.387310,SO2,7,41,17
India,"Madhya Pradesh",Ratlam,"Shasthri Nagar, Ratlam - IPCA Lab","07-04-2025 18:00:00",23.331731,75.045981,NO2,40,42,41
India,"Madhya Pradesh",Sagar,"Civil Lines, Sagar - MPPCB","07-04-2025 18:00:00",23.838586,78.759431,NO2,8,45,17
India,"Madhya Pradesh",Sagar,"Deen Dayal Nagar, Sagar - MPPCB","07-04-2025 18:00:00",23.8640158,78.80289321,PM10,32,118,72
India,"Madhya Pradesh",Singrauli,"Suryakiran Bhawan NCL, Singrauli - MPPCB","07-04-2025 18:00:00",24.108970,82.645580,SO2,34,132,57
India,"Madhya Pradesh",Singrauli,"Suryakiran Bhawan NCL, Singrauli - MPPCB","07-04-2025 18:00:00",24.108970,82.645580,CO,45,111,70
India,"Madhya Pradesh",Ujjain,"Mahakaleshwar Temple, Ujjain - MPPCB","07-04-2025 18:00:00","23.182719 ","75.768218 ",PM2.5,36,132,59
India,"Madhya Pradesh",Indore,"Regional Park, Indore - IMC","07-04-2025 18:00:00",22.6780,75.8559,PM10,48,500,129
India,"Madhya Pradesh",Indore,"Regional Park, Indore - IMC","07-04-2025 18:00:00",22.6780,75.8559,SO2,58,63,60
India,"Madhya Pradesh",Indore,"Residency Area, Indore - IMC","07-04-2025 18:00:00",22.7084,75.8815,PM2.5,33,203,82
India,"Madhya Pradesh",Indore,"Residency Area, Indore - IMC","07-04-2025 18:00:00",22.7084,75.8815,CO,16,25,18
India,"Madhya Pradesh",Jabalpur,"Govindh Bhavan Colony, Jabalpur - JMC","07-04-2025 18:00:00",23.163174,79.973061,OZONE,12,118,88
India,"Madhya Pradesh",Jabalpur,"Gupteshwar, Jabalpur - JMC","07-04-2025 18:00:00",23.142888,79.916147,NH3,2,3,3
India,"Madhya Pradesh",Jabalpur,"Gupteshwar, Jabalpur - JMC","07-04-2025 18:00:00",23.142888,79.916147,CO,26,114,34
India,"Madhya Pradesh",Pithampur,"Sector-2 Industrial Area, Pithampur - MPPCB","07-04-2025 18:00:00",22.624758,75.675238,NH3,3,5,4
India,"Madhya Pradesh",Pithampur,"Sector-2 Industrial Area, Pithampur - MPPCB","07-04-2025 18:00:00",22.624758,75.675238,SO2,12,53,25
India,Maharashtra,Aurangabad,"Rachnakar Colony, Aurangabad - MPCB","07-04-2025 18:00:00",19.863756,75.321188,NO2,12,158,54
India,Maharashtra,Aurangabad,"Rachnakar Colony, Aurangabad - MPCB","07-04-2025 18:00:00",19.863756,75.321188,SO2,6,51,24
India,"Madhya Pradesh",Pithampur,"Sector-2 Industrial Area, Pithampur - MPPCB","07-04-2025 18:00:00",22.624758,75.675238,PM10,64,254,129
India,"Madhya Pradesh",Ujjain,"Mahakaleshwar Temple, Ujjain - MPPCB","07-04-2025 18:00:00","23.182719 ","75.768218 ",CO,23,76,30
India,Maharashtra,Ahmednagar,"Tarakpur, Ahmednagar - MPCB","07-04-2025 18:00:00",19.10122,74.73339,PM10,78,367,150
India,Maharashtra,Kalyan,"Khadakpada, Kalyan - MPCB","07-04-2025 18:00:00",19.25292,73.142019,CO,6,10,7
India,Maharashtra,Kalyan,"Pimpleshwar Mandir, Kalyan - MPCB","07-04-2025 18:00:00",19.192056,72.9585188,PM2.5,NA,NA,NA
India,Maharashtra,Kalyan,"Pimpleshwar Mandir, Kalyan - MPCB","07-04-2025 18:00:00",19.192056,72.9585188,SO2,3,16,8
India,Maharashtra,Kalyan,"Pimpleshwar Mandir, Kalyan - MPCB","07-04-2025 18:00:00",19.192056,72.9585188,CO,12,48,20
India,Maharashtra,Kolhapur,"Shivaji University, Kolhapur - MPCB","07-04-2025 18:00:00",16.6870449,74.2505872,PM10,52,93,59
India,Maharashtra,Kolhapur,"Shivaji University, Kolhapur - MPCB","07-04-2025 18:00:00",16.6870449,74.2505872,SO2,1,5,2
India,Maharashtra,Kolhapur,"Shivaji University, Kolhapur - MPCB","07-04-2025 18:00:00",16.6870449,74.2505872,CO,6,42,24
India,Maharashtra,Kolhapur,"Shivaji University, Kolhapur - MPCB","07-04-2025 18:00:00",16.6870449,74.2505872,OZONE,3,46,21
India,Maharashtra,Mumbai,"Bandra Kurla Complex, Mumbai - MPCB","07-04-2025 18:00:00",19.065931,72.862131,SO2,2,9,3
India,Maharashtra,Mumbai,"Borivali East, Mumbai - MPCB","07-04-2025 18:00:00",19.2243333,72.8658113,PM10,39,114,66
India,Maharashtra,Mumbai,"Borivali East, Mumbai - MPCB","07-04-2025 18:00:00",19.2243333,72.8658113,NO2,11,55,23
India,Maharashtra,Mumbai,"Byculla, Mumbai - BMC","07-04-2025 18:00:00",18.9767,72.8380,OZONE,2,126,68
India,Maharashtra,Mumbai,"Chakala-Andheri East, Mumbai - IITM","07-04-2025 18:00:00",19.11074,72.86084,PM2.5,51,112,66
India,Maharashtra,Mumbai,"Chakala-Andheri East, Mumbai - IITM","07-04-2025 18:00:00",19.11074,72.86084,OZONE,1,230,230
India,Maharashtra,Mumbai,"Chembur, Mumbai - MPCB","07-04-2025 18:00:00",19.0364585,72.8954371,NO2,24,73,36
India,Maharashtra,Chandrapur,"MIDC Khutala, Chandrapur - MPCB","07-04-2025 18:00:00",19.9775302,79.2337086,NH3,1,1,1
India,Maharashtra,Chandrapur,"MIDC Khutala, Chandrapur - MPCB","07-04-2025 18:00:00",19.9775302,79.2337086,SO2,7,87,46
India,Maharashtra,Chandrapur,"MIDC Khutala, Chandrapur - MPCB","07-04-2025 18:00:00",19.9775302,79.2337086,OZONE,1,167,146
India,Maharashtra,Kolhapur,"Sinchan Bhavan, Kolhapur - MPCB","07-04-2025 18:00:00",16.7143745,74.2426398,PM10,60,97,80
India,Maharashtra,Kolhapur,"Sinchan Bhavan, Kolhapur - MPCB","07-04-2025 18:00:00",16.7143745,74.2426398,SO2,1,3,1
India,Maharashtra,Belapur,"CBD Belapur, Belapur - MPCB","07-04-2025 18:00:00",19.0243902,73.0406721,NH3,6,12,8
India,Maharashtra,Belapur,"CBD Belapur, Belapur - MPCB","07-04-2025 18:00:00",19.0243902,73.0406721,SO2,1,17,4
India,Maharashtra,Jalgaon,"Prabhat Colony, Jalgaon - MPCB","07-04-2025 18:00:00",21.001264,75.565602,PM2.5,53,112,76
India,Maharashtra,Boisar,"Khaira, Boisar - MPCB","07-04-2025 18:00:00",19.786089,72.757971,OZONE,6,46,33
India,Maharashtra,Kalyan,"Khadakpada, Kalyan - MPCB","07-04-2025 18:00:00",19.25292,73.142019,NH3,1,1,1
India,Maharashtra,Mumbai,"Chhatrapati Shivaji Intl. Airport (T2), Mumbai - MPCB","07-04-2025 18:00:00",19.10078,72.87462,PM10,75,100,84
India,Maharashtra,Mumbai,"Chhatrapati Shivaji Intl. Airport (T2), Mumbai - MPCB","07-04-2025 18:00:00",19.10078,72.87462,NO2,27,50,33
India,Maharashtra,Mumbai,"Colaba, Mumbai - MPCB","07-04-2025 18:00:00",18.910000,72.820000,NH3,3,3,3
India,Maharashtra,Mumbai,"Deonar, Mumbai - IITM","07-04-2025 18:00:00",19.04946,72.9230,PM10,94,163,127
India,Maharashtra,Mumbai,"Ghatkopar, Mumbai - BMC","07-04-2025 18:00:00",19.083694,72.920967,SO2,2,14,5
India,Maharashtra,Mumbai,"Kandivali East, Mumbai - MPCB","07-04-2025 18:00:00",19.205800,72.868200,PM2.5,77,85,81
India,Maharashtra,Mumbai,"Khindipada-Bhandup West, Mumbai - IITM","07-04-2025 18:00:00",19.1653323,72.922099,NH3,NA,NA,NA
India,Maharashtra,Mumbai,"Kurla, Mumbai - MPCB","07-04-2025 18:00:00",19.0863,72.8888,NO2,4,6,5
India,Maharashtra,Mumbai,"Kurla, Mumbai - MPCB","07-04-2025 18:00:00",19.0863,72.8888,OZONE,28,29,28
India,Maharashtra,Mumbai,"Malad West, Mumbai - IITM","07-04-2025 18:00:00",19.19709,72.82204,PM10,57,118,83
India,Maharashtra,Mumbai,"Mazgaon, Mumbai - IITM","07-04-2025 18:00:00",18.96702,72.84214,SO2,NA,NA,NA
India,Maharashtra,Mumbai,"Worli, Mumbai - MPCB","07-04-2025 18:00:00",18.9936162,72.8128113,NO2,NA,NA,NA
India,Maharashtra,Mumbai,"Worli, Mumbai - MPCB","07-04-2025 18:00:00",18.9936162,72.8128113,SO2,5,10,7
India,Maharashtra,Nagpur,"Opp GPO Civil Lines, Nagpur - MPCB","07-04-2025 18:00:00",21.152875,79.0517531,NH3,3,10,6
India,Maharashtra,Nashik,"Gangapur Road, Nashik - MPCB","07-04-2025 18:00:00",20.0073285,73.7762427,PM10,37,418,129
India,Maharashtra,Nashik,"Gangapur Road, Nashik - MPCB","07-04-2025 18:00:00",20.0073285,73.7762427,NH3,4,5,5
India,Maharashtra,Nashik,"Gangapur Road, Nashik - MPCB","07-04-2025 18:00:00",20.0073285,73.7762427,OZONE,24,90,65
India,Maharashtra,Nanded,"Sneh Nagar, Nanded - MPCB","07-04-2025 18:00:00",19.173852,77.296291,PM10,48,124,89
India,Maharashtra,Nanded,"Sneh Nagar, Nanded - MPCB","07-04-2025 18:00:00",19.173852,77.296291,NO2,12,91,42
India,Maharashtra,Nanded,"Sneh Nagar, Nanded - MPCB","07-04-2025 18:00:00",19.173852,77.296291,SO2,2,13,8
India,Maharashtra,Mumbai,"Vasai West, Mumbai - MPCB","07-04-2025 18:00:00",19.383200,72.820400,PM2.5,NA,NA,NA
India,Maharashtra,Mumbai,"Vasai West, Mumbai - MPCB","07-04-2025 18:00:00",19.383200,72.820400,NH3,NA,NA,NA
India,Maharashtra,Mumbai,"Vasai West, Mumbai - MPCB","07-04-2025 18:00:00",19.383200,72.820400,SO2,NA,NA,NA
India,Maharashtra,Mumbai,"Kandivali West, Mumbai - BMC","07-04-2025 18:00:00",19.215859,72.831718,SO2,1,3,1
India,Maharashtra,Nagpur,"Ram Nagar, Nagpur - MPCB","07-04-2025 18:00:00",21.143383,79.048912,CO,16,72,29
India,Maharashtra,Mumbai,"Mazgaon, Mumbai - IITM","07-04-2025 18:00:00",18.96702,72.84214,CO,1,82,14
India,Maharashtra,"Navi Mumbai","Tondare-Taloja, Navi Mumbai - MPCB","07-04-2025 18:00:00",19.0630,73.1209,PM10,73,102,85
India,Maharashtra,"Navi Mumbai","Tondare-Taloja, Navi Mumbai - MPCB","07-04-2025 18:00:00",19.0630,73.1209,NH3,2,7,5
India,Maharashtra,"Navi Mumbai","Tondare-Taloja, Navi Mumbai - MPCB","07-04-2025 18:00:00",19.0630,73.1209,SO2,1,2,1
India,Maharashtra,Parbhani,"Masoom Colony, Parbhani - MPCB","07-04-2025 18:00:00",19.265594,76.761463,PM2.5,35,77,59
India,Maharashtra,Parbhani,"Masoom Colony, Parbhani - MPCB","07-04-2025 18:00:00",19.265594,76.761463,NO2,11,77,32
India,Maharashtra,"Navi Mumbai","Sanpada, Navi Mumbai - MPCB","07-04-2025 18:00:00",19.0575752,73.0151367,PM10,52,158,93
India,Maharashtra,"Navi Mumbai","Sanpada, Navi Mumbai - MPCB","07-04-2025 18:00:00",19.0575752,73.0151367,SO2,5,18,10
India,Maharashtra,Pimpri-Chinchwad,"Thergaon, Pimpri Chinchwad - MPCB","07-04-2025 18:00:00",18.616318,73.765797,CO,20,85,35
India,Maharashtra,Pimpri-Chinchwad,"Thergaon, Pimpri Chinchwad - MPCB","07-04-2025 18:00:00",18.616318,73.765797,OZONE,1,59,35
India,Maharashtra,Pimpri-Chinchwad,"Savta Mali Nagar, Pimpri-Chinchwad - IITM","07-04-2025 18:00:00",18.614767,73.799516,PM2.5,29,179,100
India,Maharashtra,Pimpri-Chinchwad,"Savta Mali Nagar, Pimpri-Chinchwad - IITM","07-04-2025 18:00:00",18.614767,73.799516,PM10,77,150,120
India,Maharashtra,Pimpri-Chinchwad,"Gavalinagar, Pimpri Chinchwad - MPCB","07-04-2025 18:00:00",18.63673,73.82487,PM2.5,38,91,74
India,Maharashtra,Pimpri-Chinchwad,"Gavalinagar, Pimpri Chinchwad - MPCB","07-04-2025 18:00:00",18.63673,73.82487,PM10,71,123,93
India,Maharashtra,"Navi Mumbai","Sector-2E Kalamboli, Navi Mumbai - MPCB","07-04-2025 18:00:00",19.02579,73.10297,CO,4,11,9
India,Maharashtra,Nashik,"Pandav Nagari, Nashik - MPCB","07-04-2025 18:00:00",19.9591346,73.7788008,NH3,3,5,4
India,Meghalaya,Shillong,"Lumpyngngad, Shillong - Meghalaya PCB","07-04-2025 18:00:00",25.5586,91.8985,PM2.5,3,20,12
India,Meghalaya,Shillong,"Lumpyngngad, Shillong - Meghalaya PCB","07-04-2025 18:00:00",25.5586,91.8985,NO2,NA,NA,NA
India,Meghalaya,Shillong,"Lumpyngngad, Shillong - Meghalaya PCB","07-04-2025 18:00:00",25.5586,91.8985,SO2,5,11,7
India,Meghalaya,Shillong,"Lumpyngngad, Shillong - Meghalaya PCB","07-04-2025 18:00:00",25.5586,91.8985,CO,8,20,13
India,Mizoram,Aizawl,"Sikulpuikawn, Aizawl - Mizoram PCB","07-04-2025 18:00:00",23.7176342,92.7192841,CO,3,3,3
India,Mizoram,Aizawl,"Sikulpuikawn, Aizawl - Mizoram PCB","07-04-2025 18:00:00",23.7176342,92.7192841,OZONE,1,20,4
India,Nagaland,Kohima,"PWD Juction, Kohima - NPCB","07-04-2025 18:00:00",25.6635413,94.0989878,NO2,1,5,3
India,Maharashtra,Solapur,"Dnyaneshwar Nagar, Solapur - MPCB","07-04-2025 18:00:00",17.6336264,75.9132495,PM2.5,63,127,87
India,Maharashtra,Solapur,"Dnyaneshwar Nagar, Solapur - MPCB","07-04-2025 18:00:00",17.6336264,75.9132495,PM10,80,146,111
India,Maharashtra,Solapur,"Dnyaneshwar Nagar, Solapur - MPCB","07-04-2025 18:00:00",17.6336264,75.9132495,CO,11,72,17
India,Maharashtra,Solapur,"Ratandeep Housing Society, Solapur - MPCB","07-04-2025 18:00:00",17.65439,75.90649,NH3,2,13,6
India,Maharashtra,Solapur,"Ratandeep Housing Society, Solapur - MPCB","07-04-2025 18:00:00",17.65439,75.90649,OZONE,3,88,80
India,Maharashtra,Pune,"Revenue Colony-Shivajinagar, Pune - IITM","07-04-2025 18:00:00",18.530085,73.849598,PM10,106,142,120
India,Maharashtra,Pune,"Revenue Colony-Shivajinagar, Pune - IITM","07-04-2025 18:00:00",18.530085,73.849598,NO2,85,235,129
India,Maharashtra,Pune,"Revenue Colony-Shivajinagar, Pune - IITM","07-04-2025 18:00:00",18.530085,73.849598,SO2,4,25,15
India,Maharashtra,Pune,"Savitribai Phule Pune University, Pune - MPCB","07-04-2025 18:00:00",18.547056,73.826908,NO2,7,29,17
India,Maharashtra,Pune,"Savitribai Phule Pune University, Pune - MPCB","07-04-2025 18:00:00",18.547056,73.826908,NH3,1,4,2
India,Nagaland,Kohima,"PWD Juction, Kohima - NPCB","07-04-2025 18:00:00",25.6635413,94.0989878,OZONE,8,30,19
India,Odisha,Balasore,"Kalidaspur, Balasore - OSPCB","07-04-2025 18:00:00",21.51161,86.89088,PM10,22,103,62
India,Odisha,Balasore,"Kalidaspur, Balasore - OSPCB","07-04-2025 18:00:00",21.51161,86.89088,NH3,3,5,4
India,Odisha,Balasore,"Kalidaspur, Balasore - OSPCB","07-04-2025 18:00:00",21.51161,86.89088,CO,34,43,35
India,Maharashtra,Thane,"Upvan Fort, Thane - MPCB","07-04-2025 18:00:00",19.222279,72.957979,SO2,1,25,9
India,Maharashtra,Ulhasnagar,"Sidhi Vinayak Nagar, Ulhasnagar - MPCB","07-04-2025 18:00:00",19.235581,73.159121,PM2.5,2,149,72
India,Maharashtra,Ulhasnagar,"Sidhi Vinayak Nagar, Ulhasnagar - MPCB","07-04-2025 18:00:00",19.235581,73.159121,CO,10,139,29
India,Maharashtra,Pune,"Bhosari, Pune - IITM","07-04-2025 18:00:00",18.640051,73.848956,NO2,15,88,52
India,Maharashtra,Pune,"Karve Road, Pune - MPCB","07-04-2025 18:00:00",18.5011743,73.8165527,PM2.5,28,28,28
India,Maharashtra,Thane,"Kasarvadavali, Thane - MPCB","07-04-2025 18:00:00",19.26777,72.97182,NO2,23,53,35
India,Maharashtra,Thane,"Kasarvadavali, Thane - MPCB","07-04-2025 18:00:00",19.26777,72.97182,NH3,4,10,7
India,Maharashtra,Pune,"Katraj Dairy, Pune - MPCB","07-04-2025 18:00:00",18.454450,73.854155,PM2.5,36,97,77
India,Maharashtra,Virar,"Bolinj, Virar - MPCB","07-04-2025 18:00:00",19.4458210,72.7988231,OZONE,2,163,163
India,Odisha,Byasanagar,"Ferro Chrome Colony, Byasanagar - OSPCB","07-04-2025 18:00:00",20.94185,86.11510,SO2,1,36,6
India,Odisha,Cuttack,"CDA Area, Cuttack - OSPCB","07-04-2025 18:00:00","20.48891     ","85.84768     ",PM2.5,15,53,30
India,Odisha,Keonjhar,"Jagamohanpur, Keonjhar - OSPCB","07-04-2025 18:00:00",21.643900,85.599355,PM2.5,37,61,50
India,Odisha,Rourkela,"Fertilizer Township, Rourkela - OSPCB","07-04-2025 18:00:00",22.18972222,84.86277778,NO2,9,56,18
India,Odisha,Rourkela,"Fertilizer Township, Rourkela - OSPCB","07-04-2025 18:00:00",22.18972222,84.86277778,CO,4,34,25
India,Odisha,Talcher,"Talcher Coalfields,Talcher - OSPCB","07-04-2025 18:00:00",20.9360711,85.1707021,OZONE,1,5,3
India,Puducherry,Puducherry,"Jawahar Nagar, Puducherry - PPCC","07-04-2025 18:00:00",11.9309,79.8027,PM10,8,83,27
India,Punjab,Amritsar,"Golden Temple, Amritsar - PPCB","07-04-2025 18:00:00",31.620000,74.876512,SO2,17,125,57
India,Odisha,Rourkela,"Sector-2, Rourkela - OSPCB","07-04-2025 18:00:00",22.24500000,84.88111111,PM2.5,NA,NA,NA
India,Odisha,Rourkela,"Sector-2, Rourkela - OSPCB","07-04-2025 18:00:00",22.24500000,84.88111111,CO,24,34,29
India,Odisha,Suakati,"OMC Colony, Suakati - OSPCB","07-04-2025 18:00:00",21.606865,85.510538,NH3,4,4,4
India,Odisha,Suakati,"OMC Colony, Suakati - OSPCB","07-04-2025 18:00:00",21.606865,85.510538,SO2,5,43,16
India,Punjab,Jalandhar,"Civil Line, Jalandhar - PPCB","07-04-2025 18:00:00",31.321907,75.578914,PM10,62,154,110
India,Punjab,Jalandhar,"Civil Line, Jalandhar - PPCB","07-04-2025 18:00:00",31.321907,75.578914,NH3,2,4,3
India,Punjab,Khanna,"Kalal Majra, Khanna - PPCB","07-04-2025 18:00:00","30.736056 ",76.209694,PM10,11,125,85
India,Punjab,Khanna,"Kalal Majra, Khanna - PPCB","07-04-2025 18:00:00","30.736056 ",76.209694,NH3,7,7,7
India,Odisha,Bhubaneswar,"Lingraj Mandir, Bhubaneswar - OSPCB","07-04-2025 18:00:00",20.240790,85.836784,NO2,2,17,8
India,Odisha,Bhubaneswar,"Lingraj Mandir, Bhubaneswar - OSPCB","07-04-2025 18:00:00",20.240790,85.836784,SO2,2,7,5
India,Odisha,Bhubaneswar,"Patia, Bhubaneswar - OSPCB","07-04-2025 18:00:00",20.34652,85.81630,PM10,25,80,49
India,Odisha,Bhubaneswar,"Patia, Bhubaneswar - OSPCB","07-04-2025 18:00:00",20.34652,85.81630,NO2,1,53,9
India,Odisha,Brajrajnagar,"GM Office, Brajrajnagar - OSPCB","07-04-2025 18:00:00",21.8004996,83.8396977,NO2,17,20,19
India,Odisha,Byasanagar,"Ferro Chrome Colony, Byasanagar - OSPCB","07-04-2025 18:00:00",20.94185,86.11510,PM10,16,142,57
India,Punjab,"Mandi Gobindgarh","RIMT University, Mandi Gobindgarh - PPCB","07-04-2025 18:00:00",30.649961,76.331442,PM2.5,63,151,111
India,Punjab,"Mandi Gobindgarh","RIMT University, Mandi Gobindgarh - PPCB","07-04-2025 18:00:00",30.649961,76.331442,PM10,72,130,109
India,Rajasthan,Ajmer,"Civil Lines,  Ajmer - RSPCB","07-04-2025 18:00:00",26.470859,74.646594,PM10,28,135,105
India,Rajasthan,Ajmer,"Civil Lines,  Ajmer - RSPCB","07-04-2025 18:00:00",26.470859,74.646594,OZONE,24,118,85
India,Odisha,Talcher,"Talcher Coalfields,Talcher - OSPCB","07-04-2025 18:00:00",20.9360711,85.1707021,CO,36,52,45
India,Rajasthan,Bundi,"New Colony, Bundi - RSPCB","07-04-2025 18:00:00",25.435774,75.644272,NH3,10,26,15
India,Rajasthan,Bundi,"New Colony, Bundi - RSPCB","07-04-2025 18:00:00",25.435774,75.644272,CO,12,103,15
India,Rajasthan,Chittorgarh,"Shastri Nagar, Chittorgarh - RSPCB","07-04-2025 18:00:00",24.892047,74.623527,PM2.5,28,344,125
India,Rajasthan,Chittorgarh,"Shastri Nagar, Chittorgarh - RSPCB","07-04-2025 18:00:00",24.892047,74.623527,NH3,3,8,4
India,Rajasthan,Chittorgarh,"Shastri Nagar, Chittorgarh - RSPCB","07-04-2025 18:00:00",24.892047,74.623527,CO,12,115,15
India,Rajasthan,Churu,"Subash Chowk, Churu - RSPCB","07-04-2025 18:00:00",28.296139,74.961696,PM10,59,163,102
India,Rajasthan,Churu,"Subash Chowk, Churu - RSPCB","07-04-2025 18:00:00",28.296139,74.961696,CO,5,10,8
India,Rajasthan,Alwar,"Moti Doongri, Alwar - RSPCB","07-04-2025 18:00:00",27.554793,76.611536,NO2,72,112,95
India,Rajasthan,Alwar,"Moti Doongri, Alwar - RSPCB","07-04-2025 18:00:00",27.554793,76.611536,NH3,14,22,18
India,Rajasthan,Alwar,"Moti Doongri, Alwar - RSPCB","07-04-2025 18:00:00",27.554793,76.611536,SO2,3,20,14
India,Rajasthan,Alwar,"Moti Doongri, Alwar - RSPCB","07-04-2025 18:00:00",27.554793,76.611536,CO,20,118,40
India,Rajasthan,Banswara,"Rati Talai, Banswara - RSPCB","07-04-2025 18:00:00",23.555190,74.440010,PM2.5,30,231,64
India,Rajasthan,Dholpur,"Raja Ganj, Dholpur - RSPCB","07-04-2025 18:00:00",26.699557,77.898881,PM2.5,23,79,49
India,Rajasthan,Dholpur,"Raja Ganj, Dholpur - RSPCB","07-04-2025 18:00:00",26.699557,77.898881,SO2,15,62,26
India,Rajasthan,Dholpur,"Raja Ganj, Dholpur - RSPCB","07-04-2025 18:00:00",26.699557,77.898881,CO,18,78,30
India,Rajasthan,Dholpur,"Raja Ganj, Dholpur - RSPCB","07-04-2025 18:00:00",26.699557,77.898881,OZONE,17,103,96
India,Rajasthan,Dungarpur,"Bhoiwada, Dungarpur - RSPCB","07-04-2025 18:00:00",23.837789,73.714926,PM2.5,11,47,27
India,Rajasthan,Bharatpur,"Krishna Nagar, Bharatpur - RSPCB","07-04-2025 18:00:00",27.215415,77.50873,CO,17,68,33
India,Rajasthan,Bhilwara,"Pratap Nagar, Bhilwara - RSPCB","07-04-2025 18:00:00",25.339605,74.618883,SO2,23,35,28
India,Rajasthan,Bhilwara,"Pratap Nagar, Bhilwara - RSPCB","07-04-2025 18:00:00",25.339605,74.618883,CO,6,102,10
India,Rajasthan,Barmer,"Railway Colony, Barmer - RSPCB","07-04-2025 18:00:00",25.747299,71.393989,CO,9,29,16
India,Rajasthan,Bharatpur,"Krishna Nagar, Bharatpur - RSPCB","07-04-2025 18:00:00",27.215415,77.50873,NO2,15,100,57
India,Rajasthan,Hanumangarh,"Housing Board, Hanumangarh - RSPCB","07-04-2025 18:00:00",29.610750,74.283608,PM10,73,271,130
India,Rajasthan,Hanumangarh,"Housing Board, Hanumangarh - RSPCB","07-04-2025 18:00:00",29.610750,74.283608,CO,47,84,58
India,Rajasthan,Bhiwadi,"RIICO Ind. Area III, Bhiwadi - RSPCB","07-04-2025 18:00:00",28.194909,76.862296,PM10,16,167,102
India,Rajasthan,Bikaner,"MM Ground, Bikaner - RSPCB","07-04-2025 18:00:00",28.018792,73.292658,NH3,5,14,10
India,Rajasthan,Dungarpur,"Bhoiwada, Dungarpur - RSPCB","07-04-2025 18:00:00",23.837789,73.714926,NH3,5,7,6
India,Rajasthan,Jodhpur,"Jhalamand, Jodhpur - RSPCB","07-04-2025 18:00:00",26.215415,73.070156,SO2,2,32,7
India,Rajasthan,Jodhpur,"Jhalamand, Jodhpur - RSPCB","07-04-2025 18:00:00",26.215415,73.070156,OZONE,10,72,65
India,Rajasthan,Jodhpur,"Mandor, Jodhpur - RSPCB","07-04-2025 18:00:00",26.358805,73.047444,PM2.5,17,59,35
India,Rajasthan,Jodhpur,"Mandor, Jodhpur - RSPCB","07-04-2025 18:00:00",26.358805,73.047444,SO2,6,20,10
India,Rajasthan,Jodhpur,"Samrat Ashok Udhyan, Jodhpur - RSPCB","07-04-2025 18:00:00",26.253384,72.976571,PM2.5,14,197,57
India,Rajasthan,Jodhpur,"Samrat Ashok Udhyan, Jodhpur - RSPCB","07-04-2025 18:00:00",26.253384,72.976571,PM10,58,168,100
India,Rajasthan,Karauli,"Satyawati Vihar, Karauli - RSPCB","07-04-2025 18:00:00",26.506177,77.025989,PM10,61,170,113
India,Rajasthan,Karauli,"Satyawati Vihar, Karauli - RSPCB","07-04-2025 18:00:00",26.506177,77.025989,NH3,1,10,2
India,Rajasthan,Nagaur,"Karni Colony, Nagaur - RSPCB","07-04-2025 18:00:00",27.213494,73.734444,CO,11,100,21
India,Rajasthan,Nagaur,"Karni Colony, Nagaur - RSPCB","07-04-2025 18:00:00",27.213494,73.734444,OZONE,5,77,66
India,Rajasthan,Pali,"Indira Colony Vistar, Pali - RSPCB","07-04-2025 18:00:00",25.771061," 73.340227",PM2.5,115,312,207
India,Rajasthan,Pali,"Indira Colony Vistar, Pali - RSPCB","07-04-2025 18:00:00",25.771061," 73.340227",PM10,117,242,170
India,Rajasthan,Pali,"Indira Colony Vistar, Pali - RSPCB","07-04-2025 18:00:00",25.771061," 73.340227",NO2,16,36,24
India,Rajasthan,Pratapgarh,"Pragati Nagar, Pratapgarh - RSPCB","07-04-2025 18:00:00",24.041198,74.780702,PM2.5,32,66,42
India,Rajasthan,Pratapgarh,"Pragati Nagar, Pratapgarh - RSPCB","07-04-2025 18:00:00",24.041198,74.780702,PM10,72,170,109
India,Rajasthan,Jaipur,"RIICO Sitapura, Jaipur - RSPCB","07-04-2025 18:00:00",26.786682,75.827928,PM2.5,25,240,104
India,Rajasthan,Jaipur,"RIICO Sitapura, Jaipur - RSPCB","07-04-2025 18:00:00",26.786682,75.827928,NH3,2,4,3
India,Rajasthan,Jaipur,"RIICO Sitapura, Jaipur - RSPCB","07-04-2025 18:00:00",26.786682,75.827928,CO,46,107,59
India,Rajasthan,Jaipur,"Sector-2 Murlipura, Jaipur - RSPCB","07-04-2025 18:00:00",26.960669,75.771817,PM10,46,126,79
India,Rajasthan,Jaipur,"Shastri Nagar, Jaipur - RSPCB","07-04-2025 18:00:00",26.9502929,75.730943,PM10,97,147,120
India,Rajasthan,Jaipur,"Shastri Nagar, Jaipur - RSPCB","07-04-2025 18:00:00",26.9502929,75.730943,NH3,3,11,6
India,Rajasthan,Kota,"Nayapura, Kota - RSPCB","07-04-2025 18:00:00",25.196024,75.855668,NH3,12,26,18
India,Rajasthan,Kota,"Shrinath Puram, Kota - RSPCB","07-04-2025 18:00:00",25.14389,75.821256,PM10,36,142,104
India,Rajasthan,Jhalawar,"Rajlaxmi Nagar, Jhalawar - RSPCB","07-04-2025 18:00:00",24.588397,76.172782,PM10,67,209,120
India,Rajasthan,Jaipur,"Adarsh Nagar, Jaipur - RSPCB","07-04-2025 18:00:00",26.902909,75.836858,OZONE,36,73,61
India,Rajasthan,Jaipur,"Adarsh Nagar, Jaipur - RSPCB","07-04-2025 18:00:00",26.902909,75.836858,PM10,64,114,93
India,Rajasthan,Jhunjhunu,"Indra Nagar, Jhunjhunu - RSPCB","07-04-2025 18:00:00",28.108988,75.386577,SO2,4,17,9
India,Rajasthan,Jodhpur,"Collectorate, Jodhpur - RSPCB","07-04-2025 18:00:00",26.268249,73.0193853,CO,3,116,43
India,TamilNadu,Chennai,"Alandur Bus Depot, Chennai - CPCB","07-04-2025 18:00:00",12.9099161,80.1076538,CO,16,27,20
India,TamilNadu,Chennai,"Alandur Bus Depot, Chennai - CPCB","07-04-2025 18:00:00",12.9099161,80.1076538,OZONE,65,127,103
India,TamilNadu,Chennai,"Kodungaiyur, Chennai - TNPCB","07-04-2025 18:00:00",13.1278,80.2642,SO2,1,8,3
India,TamilNadu,Chennai,"Kodungaiyur, Chennai - TNPCB","07-04-2025 18:00:00",13.1278,80.2642,CO,6,57,32
India,TamilNadu,Chennai,"Manali Village, Chennai - TNPCB","07-04-2025 18:00:00",13.1662,80.2584,SO2,16,22,18
India,TamilNadu,Chennai,"Manali Village, Chennai - TNPCB","07-04-2025 18:00:00",13.1662,80.2584,OZONE,30,43,37
India,TamilNadu,Chennai,"Manali, Chennai - CPCB","07-04-2025 18:00:00",13.164544,80.26285,PM2.5,7,56,20
India,TamilNadu,Chennai,"Manali, Chennai - CPCB","07-04-2025 18:00:00",13.164544,80.26285,CO,63,108,86
India,TamilNadu,Chennai,"Manali, Chennai - CPCB","07-04-2025 18:00:00",13.164544,80.26285,OZONE,18,29,22
India,TamilNadu,Cuddalore,"Semmandalam, Cuddalore - TNPCB","07-04-2025 18:00:00",11.7637683,79.7499835,NH3,1,1,1
India,TamilNadu,Dindigul,"Mendonsa Colony, Dindigul - TNPCB","07-04-2025 18:00:00",10.358535,77.984321,NH3,NA,NA,NA
India,TamilNadu,Dindigul,"Mendonsa Colony, Dindigul - TNPCB","07-04-2025 18:00:00",10.358535,77.984321,SO2,19,23,21
India,TamilNadu,Hosur,"SIPCOT Phase-1, Hosur - TNPCB","07-04-2025 18:00:00",12.746998,77.813811,PM2.5,28,86,60
India,TamilNadu,Hosur,"SIPCOT Phase-1, Hosur - TNPCB","07-04-2025 18:00:00",12.746998,77.813811,PM10,31,99,72
India,TamilNadu,Hosur,"SIPCOT Phase-1, Hosur - TNPCB","07-04-2025 18:00:00",12.746998,77.813811,SO2,48,52,50
India,TamilNadu,Kanchipuram,"Kilambi, Kanchipuram - TNPCB","07-04-2025 18:00:00",12.864618,79.659968,NH3,4,4,4
India,TamilNadu,Kanchipuram,"Kilambi, Kanchipuram - TNPCB","07-04-2025 18:00:00",12.864618,79.659968,CO,20,22,21
India,TamilNadu,Karur,"Kamadenu Nagar, Karur - TNPCB","07-04-2025 18:00:00",10.967820,78.080882,PM10,NA,NA,NA
India,TamilNadu,Madurai,"Uchapatti, Madurai - TNPCB","07-04-2025 18:00:00",9.865935,78.022669,PM2.5,6,39,21
India,TamilNadu,Madurai,"Uchapatti, Madurai - TNPCB","07-04-2025 18:00:00",9.865935,78.022669,NO2,16,20,19
India,TamilNadu,Madurai,"Uchapatti, Madurai - TNPCB","07-04-2025 18:00:00",9.865935,78.022669,SO2,13,29,25
India,TamilNadu,Nagapattinam,"Velippalayam, Nagapattinam - TNPCB","07-04-2025 18:00:00",10.798548,79.838212,PM2.5,NA,NA,NA
India,TamilNadu,Nagapattinam,"Velippalayam, Nagapattinam - TNPCB","07-04-2025 18:00:00",10.798548,79.838212,NH3,NA,NA,NA
India,Rajasthan,Pratapgarh,"Pragati Nagar, Pratapgarh - RSPCB","07-04-2025 18:00:00",24.041198,74.780702,NH3,4,8,5
India,Rajasthan,Rajsamand,"Dhoinda, Rajsamand - RSPCB","07-04-2025 18:00:00",25.036360,73.883502,PM2.5,10,90,26
India,Rajasthan,Rajsamand,"Dhoinda, Rajsamand - RSPCB","07-04-2025 18:00:00",25.036360,73.883502,NH3,6,15,9
India,Rajasthan,"Sawai Madhopur","Sahu Nagar, Sawai Madhopur - RSPCB","07-04-2025 18:00:00",26.031443,76.359327,PM2.5,60,343,146
India,Rajasthan,Sikar,"Radhakishan Pura, Sikar - RSPCB","07-04-2025 18:00:00",27.608912,75.153302,NO2,8,82,26
India,TamilNadu,Ariyalur,"Keelapalur, Ariyalur - TNPCB","07-04-2025 18:00:00",11.06825,79.07033,PM10,42,65,52
India,TamilNadu,Ariyalur,"Keelapalur, Ariyalur - TNPCB","07-04-2025 18:00:00",11.06825,79.07033,SO2,10,10,10
India,TamilNadu,Ariyalur,"Keelapalur, Ariyalur - TNPCB","07-04-2025 18:00:00",11.06825,79.07033,OZONE,5,26,16
India,TamilNadu,Chengalpattu,"Crescent University, Chengalpattu - TNPCB","07-04-2025 18:00:00",12.8777316,80.0834807,NO2,13,14,14
India,TamilNadu,Chengalpattu,"Crescent University, Chengalpattu - TNPCB","07-04-2025 18:00:00",12.8777316,80.0834807,SO2,15,16,16
India,TamilNadu,Chennai,"Royapuram, Chennai - TNPCB","07-04-2025 18:00:00",13.1036,80.2909,CO,19,53,23
India,TamilNadu,Chennai,"Velachery Res. Area, Chennai - CPCB","07-04-2025 18:00:00",13.0052189,80.2398125,OZONE,43,52,50
India,TamilNadu,Coimbatore,"SIDCO Kurichi, Coimbatore - TNPCB","07-04-2025 18:00:00",10.942451,76.978996,NO2,7,25,14
India,Rajasthan,Sirohi,"Vedhaynath Colony, Sirohi - RSPCB","07-04-2025 18:00:00",24.885261,72.857549,CO,2,54,9
India,Rajasthan,"Sri Ganganagar","Old City, Sri Ganganagar - RSPCB","07-04-2025 18:00:00",29.931624,73.864511,PM10,111,274,159
India,Rajasthan,"Sri Ganganagar","Old City, Sri Ganganagar - RSPCB","07-04-2025 18:00:00",29.931624,73.864511,SO2,9,34,22
India,Rajasthan,Tonk,"Shastri Nagar, Tonk - RSPCB","07-04-2025 18:00:00",26.159933,75.780517,NH3,4,11,8
India,Rajasthan,Tonk,"Shastri Nagar, Tonk - RSPCB","07-04-2025 18:00:00",26.159933,75.780517,SO2,5,14,8
India,Rajasthan,Tonk,"Shastri Nagar, Tonk - RSPCB","07-04-2025 18:00:00",26.159933,75.780517,PM10,64,468,187
India,TamilNadu,Tiruchirappalli,"St Joseph College, Tiruchirappalli - TNPCB","07-04-2025 18:00:00",10.830158,78.691849,CO,6,17,6
India,TamilNadu,Tirunelveli,"Municipal Corporation Office, Tirunelveli - TNPCB","07-04-2025 18:00:00",8.728442,77.6962,PM10,20,37,30
India,TamilNadu,Tirunelveli,"Municipal Corporation Office, Tirunelveli - TNPCB","07-04-2025 18:00:00",8.728442,77.6962,SO2,18,19,19
India,TamilNadu,Tirunelveli,"Municipal Corporation Office, Tirunelveli - TNPCB","07-04-2025 18:00:00",8.728442,77.6962,CO,29,30,30
India,TamilNadu,Tirupur,"Kumaran College, Tirupur - TNPCB","07-04-2025 18:00:00",11.0973603,77.3228673,PM2.5,NA,NA,NA
India,TamilNadu,Tirupur,"Kumaran College, Tirupur - TNPCB","07-04-2025 18:00:00",11.0973603,77.3228673,NO2,NA,NA,NA
India,TamilNadu,Tirupur,"Kumaran College, Tirupur - TNPCB","07-04-2025 18:00:00",11.0973603,77.3228673,OZONE,NA,NA,NA
India,TamilNadu,Vellore,"Vasanthapuram, Vellore - TNPCB","07-04-2025 18:00:00",12.909494,79.131861,PM10,35,83,60
India,TamilNadu,Vellore,"Vasanthapuram, Vellore - TNPCB","07-04-2025 18:00:00",12.909494,79.131861,OZONE,4,58,28
India,TamilNadu,Virudhunagar,"Collectorate Office, Virudhunagar - TNPCB","07-04-2025 18:00:00",9.559382,77.948828,NH3,NA,NA,NA
India,Telangana,Hyderabad,"Bollaram Industrial Area, Hyderabad - TSPCB","07-04-2025 18:00:00",17.540891,78.358528,PM10,70,152,100
India,Telangana,Hyderabad,"Bollaram Industrial Area, Hyderabad - TSPCB","07-04-2025 18:00:00",17.540891,78.358528,CO,23,125,43
India,Telangana,Hyderabad,"Central University, Hyderabad - TSPCB","07-04-2025 18:00:00",17.460103,78.334361,PM10,NA,NA,NA
India,Telangana,Hyderabad,"Central University, Hyderabad - TSPCB","07-04-2025 18:00:00",17.460103,78.334361,NO2,NA,NA,NA
India,Telangana,Hyderabad,"Central University, Hyderabad - TSPCB","07-04-2025 18:00:00",17.460103,78.334361,CO,17,30,24
India,Telangana,Hyderabad,"ECIL Kapra, Hyderabad - TSPCB","07-04-2025 18:00:00",17.470431,78.566959,NO2,16,36,27
India,TamilNadu,Thoothukudi,"Meelavittan, Thoothukudi - TNPCB","07-04-2025 18:00:00","8.816428 ",78.099039,CO,4,36,17
India,TamilNadu,Thoothukudi,"Meelavittan, Thoothukudi - TNPCB","07-04-2025 18:00:00","8.816428 ",78.099039,OZONE,15,24,21
India,TamilNadu,Tiruchirappalli,"St Joseph College, Tiruchirappalli - TNPCB","07-04-2025 18:00:00",10.830158,78.691849,PM2.5,11,31,23
India,TamilNadu,Palkalaiperur,"Bharathidasan University, Palkalaiperur - TNPCB","07-04-2025 18:00:00",10.681158,78.741746,NH3,3,3,3
India,TamilNadu,Perundurai,"SIPCOT Industrial Park, Perundurai - TNPCB","07-04-2025 18:00:00",11.258242,77.552761,NO2,NA,NA,NA
India,TamilNadu,Perundurai,"SIPCOT Industrial Park, Perundurai - TNPCB","07-04-2025 18:00:00",11.258242,77.552761,SO2,NA,NA,NA
India,TamilNadu,Salem,"Sona College of Technology, Salem - TNPCB","07-04-2025 18:00:00",11.679111,78.125052,NH3,3,3,3
India,TamilNadu,Thanjavur,"Parisutham Nagar, Thanjavur - TNPCB","07-04-2025 18:00:00",10.7654824,79.1389968,NO2,4,5,4
India,TamilNadu,Ooty,"Bombay Castel, Ooty - TNPCB","07-04-2025 18:00:00",11.4068288,76.7138973,PM2.5,NA,NA,NA
India,TamilNadu,Ooty,"Bombay Castel, Ooty - TNPCB","07-04-2025 18:00:00",11.4068288,76.7138973,PM10,NA,NA,NA
India,TamilNadu,Namakkal,"Ponnusamy Nagar, Namakkal - TNPCB","07-04-2025 18:00:00",11.273992,78.163545,NO2,NA,NA,NA
India,TamilNadu,Namakkal,"Ponnusamy Nagar, Namakkal - TNPCB","07-04-2025 18:00:00",11.273992,78.163545,NH3,NA,NA,NA
India,TamilNadu,Salem,"Sona College of Technology, Salem - TNPCB","07-04-2025 18:00:00",11.679111,78.125052,PM10,24,79,47
India,TamilNadu,Ramanathapuram,"Chalai Bazaar, Ramanathapuram - TNPCB","07-04-2025 18:00:00",9.36399,78.831977,PM10,12,56,33
India,Uttar_Pradesh,Baghpat,"Sardar Patel Inter College, Baghpat - UPPCB","07-04-2025 18:00:00",28.964949,77.278761,NO2,12,76,42
India,Uttar_Pradesh,Bareilly,"Civil Lines, Bareilly - UPPCB","07-04-2025 18:00:00",28.359581,79.414455,NO2,1,7,3
India,Uttar_Pradesh,Bareilly,"Civil Lines, Bareilly - UPPCB","07-04-2025 18:00:00",28.359581,79.414455,SO2,69,96,78
India,Uttar_Pradesh,Bareilly,"Rajendra Nagar, Bareilly - UPPCB","07-04-2025 18:00:00",28.38910936,79.42963708,CO,8,101,22
India,Uttar_Pradesh,Bulandshahr,"Yamunapuram, Bulandshahr - UPPCB","07-04-2025 18:00:00",28.406963,77.849831,PM2.5,31,344,180
India,Uttar_Pradesh,Bulandshahr,"Yamunapuram, Bulandshahr - UPPCB","07-04-2025 18:00:00",28.406963,77.849831,NO2,8,165,70
India,Uttar_Pradesh,Bulandshahr,"Yamunapuram, Bulandshahr - UPPCB","07-04-2025 18:00:00",28.406963,77.849831,NH3,12,29,17
India,Telangana,Hyderabad,"New Malakpet, Hyderabad - TSPCB","07-04-2025 18:00:00",17.37206,78.50864,CO,10,56,36
India,Telangana,Hyderabad,"New Malakpet, Hyderabad - TSPCB","07-04-2025 18:00:00",17.37206,78.50864,OZONE,10,56,38
India,Telangana,Hyderabad,"Ramachandrapuram, Hyderabad - TSPCB","07-04-2025 18:00:00",17.528544,78.286195,NH3,NA,NA,NA
India,Telangana,Hyderabad,"Somajiguda, Hyderabad - TSPCB","07-04-2025 18:00:00",17.417094,78.457437,NH3,5,5,5
India,Tripura,Agartala,"Bardowali, Agartala - Tripura SPCB","07-04-2025 18:00:00",23.8175497,91.2726974,PM10,18,236,46
India,Uttar_Pradesh,Agra,"Sanjay Palace, Agra - UPPCB","07-04-2025 18:00:00",27.19865833,78.00598056,PM10,47,213,133
India,Uttar_Pradesh,Agra,"Sector-3B Avas Vikas Colony, Agra - UPPCB","07-04-2025 18:00:00",27.19412,77.96237,OZONE,1,7,4
India,Uttar_Pradesh,Agra,"Shahjahan Garden, Agra - UPPCB","07-04-2025 18:00:00",27.169338,78.03582,NH3,NA,NA,NA
India,Uttar_Pradesh,Agra,"Shahjahan Garden, Agra - UPPCB","07-04-2025 18:00:00",27.169338,78.03582,CO,8,14,10
India,Uttar_Pradesh,Agra,"Manoharpur, Agra - UPPCB","07-04-2025 18:00:00",27.23711,78.01936,NO2,11,11,11
India,Uttar_Pradesh,Agra,"Manoharpur, Agra - UPPCB","07-04-2025 18:00:00",27.23711,78.01936,OZONE,2,64,51
India,Uttar_Pradesh,Agra,"Rohta, Agra - UPPCB","07-04-2025 18:00:00",27.106972,78.000111,PM2.5,16,323,119
India,Uttar_Pradesh,Agra,"Rohta, Agra - UPPCB","07-04-2025 18:00:00",27.106972,78.000111,NO2,8,12,11
India,Uttar_Pradesh,Agra,"Rohta, Agra - UPPCB","07-04-2025 18:00:00",27.106972,78.000111,NH3,3,4,4
India,Telangana,Hyderabad,"IITH Kandi, Hyderabad - TSPCB","07-04-2025 18:00:00",17.585705,78.126199,PM10,NA,NA,NA
India,Telangana,Hyderabad,"IITH Kandi, Hyderabad - TSPCB","07-04-2025 18:00:00",17.585705,78.126199,NH3,2,2,2
India,Uttar_Pradesh,Agra,"Shastripuram, Agra - UPPCB","07-04-2025 18:00:00",27.19862,77.92066,PM2.5,NA,NA,NA
India,Uttar_Pradesh,Agra,"Shastripuram, Agra - UPPCB","07-04-2025 18:00:00",27.19862,77.92066,OZONE,2,6,5
India,Telangana,Hyderabad,"Kompally Municipal Office, Hyderabad - TSPCB","07-04-2025 18:00:00",17.544899,78.486949,PM10,NA,NA,NA
India,Tripura,Agartala,"Bardowali, Agartala - Tripura SPCB","07-04-2025 18:00:00",23.8175497,91.2726974,OZONE,39,129,115
India,Telangana,Hyderabad,"IDA Pashamylaram, Hyderabad - TSPCB","07-04-2025 18:00:00",17.5316895,78.218939,SO2,1,20,8
India,Uttar_Pradesh,Lucknow,"Talkatora District Industries Center, Lucknow - CPCB","07-04-2025 18:00:00",26.83399722,80.8917361,NO2,NA,NA,NA
India,Uttar_Pradesh,Lucknow,"Talkatora District Industries Center, Lucknow - CPCB","07-04-2025 18:00:00",26.83399722,80.8917361,SO2,NA,NA,NA
India,Uttar_Pradesh,Lucknow,"Talkatora District Industries Center, Lucknow - CPCB","07-04-2025 18:00:00",26.83399722,80.8917361,OZONE,4,60,44
India,Uttar_Pradesh,Meerut,"Ganga Nagar, Meerut - UPPCB","07-04-2025 18:00:00",28.999264,77.7590354,PM2.5,87,351,255
India,Uttar_Pradesh,Meerut,"Ganga Nagar, Meerut - UPPCB","07-04-2025 18:00:00",28.999264,77.7590354,NO2,18,124,58
India,Uttar_Pradesh,Meerut,"Ganga Nagar, Meerut - UPPCB","07-04-2025 18:00:00",28.999264,77.7590354,SO2,3,43,18
India,Uttar_Pradesh,Khurja,"Kalindi Kunj, Khurja - UPPCB","07-04-2025 18:00:00",28.2348927,77.8683002,CO,37,66,45
India,Uttar_Pradesh,Lucknow,"B R Ambedkar University, Lucknow - UPPCB","07-04-2025 18:00:00",26.766433,80.927299,SO2,21,38,29
India,Uttar_Pradesh,Lucknow,"B R Ambedkar University, Lucknow - UPPCB","07-04-2025 18:00:00",26.766433,80.927299,CO,10,44,16
India,Uttar_Pradesh,Lucknow,"Kendriya Vidyalaya, Lucknow - CPCB","07-04-2025 18:00:00",26.906111,80.948222,NO2,36,53,43
India,Uttar_Pradesh,Lucknow,"Kendriya Vidyalaya, Lucknow - CPCB","07-04-2025 18:00:00",26.906111,80.948222,NH3,3,20,14
India,Uttar_Pradesh,Jhansi,"Shivaji Nagar, Jhansi - UPPCB","07-04-2025 18:00:00",25.4547,78.6039,PM2.5,39,500,112
India,Uttar_Pradesh,Kanpur,"FTI Kidwai Nagar, Kanpur - UPPCB","07-04-2025 18:00:00",26.428282,80.327067,SO2,NA,NA,NA
India,Uttar_Pradesh,Kanpur,"Nehru Nagar, Kanpur - UPPCB","07-04-2025 18:00:00",26.4703136,80.3229863,PM10,38,170,83
India,Uttar_Pradesh,Kanpur,"Nehru Nagar, Kanpur - UPPCB","07-04-2025 18:00:00",26.4703136,80.3229863,CO,25,60,30
India,Uttar_Pradesh,Ghaziabad,"Loni, Ghaziabad - UPPCB","07-04-2025 18:00:00",28.757294,77.278792,SO2,2,102,42
India,Uttar_Pradesh,Ghaziabad,"Vasundhara, Ghaziabad - UPPCB","07-04-2025 18:00:00",28.6603346,77.3572563,SO2,16,102,36
India,Uttar_Pradesh,Gorakhpur,"Madan Mohan Malaviya University of Technology, Gorakhpur - UPPCB","07-04-2025 18:00:00",26.730136,83.433859,PM10,84,333,141
India,Uttar_Pradesh,Lucknow,"Kukrail Picnic Spot-1, Lucknow - UPPCB","07-04-2025 18:00:00",26.90723,80.98579,PM2.5,24,222,98
India,Uttar_Pradesh,Lucknow,"Kukrail Picnic Spot-1, Lucknow - UPPCB","07-04-2025 18:00:00",26.90723,80.98579,OZONE,12,83,70
India,Uttar_Pradesh,Lucknow,"Lalbagh, Lucknow - CPCB","07-04-2025 18:00:00",26.8458805,80.9365541,SO2,NA,NA,NA
India,Uttar_Pradesh,Lucknow,"Lalbagh, Lucknow - CPCB","07-04-2025 18:00:00",26.8458805,80.9365541,CO,10,82,52
India,Uttar_Pradesh,Firozabad,"Nagla Bhau, Firozabad - UPPCB","07-04-2025 18:00:00",27.168897,78.376960,OZONE,3,9,6
India,Uttar_Pradesh,Firozabad,"Vibhab Nagar, Firozabad - UPPCB","07-04-2025 18:00:00",27.1594,78.3953,SO2,18,133,85
India,Uttar_Pradesh,Ghaziabad,"Indirapuram, Ghaziabad - UPPCB","07-04-2025 18:00:00",28.646233,77.358075,SO2,2,30,11
India,Uttar_Pradesh,"Greater Noida","Knowledge Park - V, Greater Noida - UPPCB","07-04-2025 18:00:00",28.557054,77.453663,NH3,8,18,13
India,Uttar_Pradesh,Hapur,"Anand Vihar, Hapur - UPPCB","07-04-2025 18:00:00",28.725645,77.749675,NH3,9,16,12
India,Uttar_Pradesh,Ghaziabad,"Indirapuram, Ghaziabad - UPPCB","07-04-2025 18:00:00",28.646233,77.358075,CO,32,53,38
India,Uttar_Pradesh,Ghaziabad,"Indirapuram, Ghaziabad - UPPCB","07-04-2025 18:00:00",28.646233,77.358075,OZONE,5,94,83
India,Uttar_Pradesh,"Greater Noida","Knowledge Park - III, Greater Noida - UPPCB","07-04-2025 18:00:00",28.47272,77.482000,PM2.5,21,118,70
India,Uttar_Pradesh,Moradabad,"Transport Nagar, Moradabad - UPPCB","07-04-2025 18:00:00",28.802625,78.753728,PM10,40,124,86
India,Uttar_Pradesh,Moradabad,"Transport Nagar, Moradabad - UPPCB","07-04-2025 18:00:00",28.802625,78.753728,SO2,23,50,33
India,Uttar_Pradesh,Moradabad,"Transport Nagar, Moradabad - UPPCB","07-04-2025 18:00:00",28.802625,78.753728,OZONE,16,80,68
India,Uttar_Pradesh,Muzaffarnagar,"New Mandi, Muzaffarnagar - UPPCB","07-04-2025 18:00:00",29.4723508,77.7194031,NH3,10,17,13
India,Uttar_Pradesh,Noida,"Sector - 125, Noida - UPPCB","07-04-2025 18:00:00",28.5447608,77.3231257,SO2,5,75,25
India,Uttar_Pradesh,Noida,"Sector-1, Noida - UPPCB","07-04-2025 18:00:00",28.5898,77.3101,SO2,NA,NA,NA
India,Uttar_Pradesh,Noida,"Sector-116, Noida - UPPCB","07-04-2025 18:00:00",28.569230,77.393848,PM2.5,43,371,233
India,Uttar_Pradesh,Prayagraj,"Motilal Nehru NIT, Prayagraj - UPPCB","07-04-2025 18:00:00",25.494,81.863,PM10,30,166,118
India,Uttar_Pradesh,Prayagraj,"Nagar Nigam, Prayagraj - UPPCB","07-04-2025 18:00:00","25.44919916 ","81.82735986 ",PM2.5,38,228,110
India,Uttar_Pradesh,Prayagraj,"Nagar Nigam, Prayagraj - UPPCB","07-04-2025 18:00:00","25.44919916 ","81.82735986 ",PM10,40,242,131
India,Uttar_Pradesh,Varanasi,"Ardhali Bazar, Varanasi - UPPCB","07-04-2025 18:00:00",25.3505986,82.9083074,PM10,25,155,86
India,Uttar_Pradesh,Varanasi,"Ardhali Bazar, Varanasi - UPPCB","07-04-2025 18:00:00",25.3505986,82.9083074,SO2,11,20,16
India,Uttar_Pradesh,Varanasi,"Bhelupur, Varanasi - UPPCB","07-04-2025 18:00:00",25.301778,82.996789,PM2.5,14,70,45
India,Uttar_Pradesh,Varanasi,"Bhelupur, Varanasi - UPPCB","07-04-2025 18:00:00",25.301778,82.996789,CO,13,121,22
India,Uttar_Pradesh,Moradabad,"Eco Herbal Park, Moradabad - UPPCB","07-04-2025 18:00:00",28.840739,78.697531,CO,3,140,69
India,Uttar_Pradesh,Moradabad,"Employment Office, Moradabad - UPPCB","07-04-2025 18:00:00",28.88528,78.73880,CO,34,107,52
India,Uttar_Pradesh,Moradabad,"Employment Office, Moradabad - UPPCB","07-04-2025 18:00:00",28.88528,78.73880,OZONE,8,117,57
India,Uttar_Pradesh,Moradabad,"Jigar Colony, Moradabad - UPPCB","07-04-2025 18:00:00",28.856664,78.772638,NO2,23,25,24
India,Uttar_Pradesh,Moradabad,"Kashiram Nagar, Moradabad - UPPCB","07-04-2025 18:00:00",28.849399,78.742362,PM2.5,20,278,67
India,Uttar_Pradesh,Moradabad,"Kashiram Nagar, Moradabad - UPPCB","07-04-2025 18:00:00",28.849399,78.742362,NH3,4,4,4
India,Uttar_Pradesh,Vrindavan,"Omex Eternity, Vrindavan - UPPCB","07-04-2025 18:00:00",27.5714090,77.6557570,PM10,25,142,74
India,Uttarakhand,Dehradun,"Doon University, Dehradun - UKPCB","07-04-2025 18:00:00",30.269444,78.044167,PM10,59,171,105
India,Uttarakhand,Dehradun,"Doon University, Dehradun - UKPCB","07-04-2025 18:00:00",30.269444,78.044167,NO2,1,8,3
India,Uttar_Pradesh,Meerut,"Ganga Nagar, Meerut - UPPCB","07-04-2025 18:00:00",28.999264,77.7590354,OZONE,1,229,176
India,Uttar_Pradesh,Meerut,"Jai Bhim Nagar, Meerut - UPPCB","07-04-2025 18:00:00",28.9535882,77.7622941,NH3,8,83,21
India,Uttar_Pradesh,Moradabad,"Buddhi Vihar, Moradabad - UPPCB","07-04-2025 18:00:00",28.83526,78.74460,SO2,17,23,19
India,Uttar_Pradesh,Moradabad,"Buddhi Vihar, Moradabad - UPPCB","07-04-2025 18:00:00",28.83526,78.74460,OZONE,7,92,51
India,Uttar_Pradesh,Meerut,"Pallavpuram Phase 2, Meerut - UPPCB","07-04-2025 18:00:00",29.063510,77.709723,PM10,81,275,159
India,Uttar_Pradesh,Meerut,"Pallavpuram Phase 2, Meerut - UPPCB","07-04-2025 18:00:00",29.063510,77.709723,OZONE,1,115,94
India,Uttar_Pradesh,Prayagraj,"Jhunsi, Prayagraj - UPPCB","07-04-2025 18:00:00",25.425602,81.917152,PM2.5,31,150,82
India,West_Bengal,Asansol,"Asansol Court Area, Asansol - WBPCB","07-04-2025 18:00:00",23.685297,86.945968,SO2,6,27,12
India,West_Bengal,Asansol,"Asansol Court Area, Asansol - WBPCB","07-04-2025 18:00:00",23.685297,86.945968,CO,18,50,24
India,West_Bengal,Asansol,"Evelyn Lodge, Asansol - WBPCB","07-04-2025 18:00:00",23.6979360,86.9443950,PM10,56,109,75
India,West_Bengal,Asansol,"Evelyn Lodge, Asansol - WBPCB","07-04-2025 18:00:00",23.6979360,86.9443950,SO2,4,8,5
India,West_Bengal,Asansol,"Evelyn Lodge, Asansol - WBPCB","07-04-2025 18:00:00",23.6979360,86.9443950,OZONE,4,53,42
India,West_Bengal,Asansol,"Mahabir Colliery, Asansol - WBPCB","07-04-2025 18:00:00",23.6181830,87.1057180,PM2.5,38,67,46
India,West_Bengal,Asansol,"Mahabir Colliery, Asansol - WBPCB","07-04-2025 18:00:00",23.6181830,87.1057180,NH3,6,9,7
India,West_Bengal,Howrah,"Belur Math, Howrah - WBPCB","07-04-2025 18:00:00",22.629801,88.352017,NH3,4,4,4
India,West_Bengal,Howrah,"Botanical Garden, Howrah - WBPCB","07-04-2025 18:00:00",22.554954,88.292568,PM10,31,73,43
India,West_Bengal,Howrah,"Botanical Garden, Howrah - WBPCB","07-04-2025 18:00:00",22.554954,88.292568,NH3,1,3,2
India,West_Bengal,Howrah,"Dasnagar, Howrah - WBPCB","07-04-2025 18:00:00",22.6025571,88.3105664,NO2,6,19,10
India,West_Bengal,Asansol,"Trivenidevi Bhalotia College, Asansol - WBPCB","07-04-2025 18:00:00",23.616515,87.119133,NO2,10,60,26
India,West_Bengal,Barrackpore,"SVSPA Campus, Barrackpore - WBPCB","07-04-2025 18:00:00",22.7605581,88.3617589,PM10,35,95,56
India,West_Bengal,Barrackpore,"SVSPA Campus, Barrackpore - WBPCB","07-04-2025 18:00:00",22.7605581,88.3617589,NO2,7,18,12
India,Uttarakhand,Rishikesh,"Shivaji Nagar, Rishikesh - UKPCB","07-04-2025 18:00:00",30.075911,78.2859547,OZONE,17,147,118
India,West_Bengal,Asansol,"Asansol Court Area, Asansol - WBPCB","07-04-2025 18:00:00",23.685297,86.945968,PM2.5,43,151,79
India,West_Bengal,Howrah,"Padmapukur, Howrah - WBPCB","07-04-2025 18:00:00",22.5687319,88.2797276,PM2.5,29,79,45
India,West_Bengal,Howrah,"Padmapukur, Howrah - WBPCB","07-04-2025 18:00:00",22.5687319,88.2797276,PM10,35,82,51
India,West_Bengal,Howrah,"Padmapukur, Howrah - WBPCB","07-04-2025 18:00:00",22.5687319,88.2797276,OZONE,11,36,31
India,West_Bengal,Kolkata,"Ballygunge, Kolkata - WBPCB","07-04-2025 18:00:00",22.5367507,88.3638022,SO2,3,12,8
India,West_Bengal,Kolkata,"Bidhannagar, Kolkata - WBPCB","07-04-2025 18:00:00",22.58157048,88.41002457,SO2,6,9,7
India,West_Bengal,Howrah,"Ghusuri, Howrah - WBPCB","07-04-2025 18:00:00",22.611968,88.347422,PM10,29,102,57
India,West_Bengal,Howrah,"Ghusuri, Howrah - WBPCB","07-04-2025 18:00:00",22.611968,88.347422,NO2,NA,NA,NA
India,West_Bengal,Durgapur,"PCBL Residential Complex, Durgapur - WBPCB","07-04-2025 18:00:00",23.5087640,87.3544400,CO,53,109,60
India,West_Bengal,Haldia,"Priyambada Housing Estate, Haldia - WBPCB","07-04-2025 18:00:00",22.06047,88.109737,NH3,4,8,5
India,West_Bengal,Kolkata,"Jadavpur, Kolkata - WBPCB","07-04-2025 18:00:00",22.49929,88.36917,SO2,5,10,7
India,West_Bengal,Kolkata,"Rabindra Bharati University, Kolkata - WBPCB","07-04-2025 18:00:00",22.627847,88.380669,NH3,8,9,9
India,West_Bengal,Kolkata,"Rabindra Sarobar, Kolkata - WBPCB","07-04-2025 18:00:00",22.51106,88.35142,SO2,3,20,7
India,West_Bengal,Kolkata,"Rabindra Sarobar, Kolkata - WBPCB","07-04-2025 18:00:00",22.51106,88.35142,OZONE,12,39,34
India,West_Bengal,Kolkata,"Victoria, Kolkata - WBPCB","07-04-2025 18:00:00",22.5448082,88.3403691,CO,10,32,25
India,West_Bengal,Siliguri,"Ward-32 Bapupara, Siliguri - WBPCB","07-04-2025 18:00:00",26.6879226,88.4152495,NH3,12,13,13
India,West_Bengal,Siliguri,"Ward-32 Bapupara, Siliguri - WBPCB","07-04-2025 18:00:00",26.6879226,88.4152495,SO2,13,19,15
India,West_Bengal,Siliguri,"Ward-32 Bapupara, Siliguri - WBPCB","07-04-2025 18:00:00",26.6879226,88.4152495,CO,24,66,38
India,West_Bengal,Siliguri,"Ward-32 Bapupara, Siliguri - WBPCB","07-04-2025 18:00:00",26.6879226,88.4152495,OZONE,22,56,50
India,Andhra_Pradesh,Tirumala,"Toll Gate, Tirumala - APPCB (Formerly known as Tirumala, Tirupati - APPCB)","07-04-2025 18:00:00",13.67,79.35,CO,6,157,36
India,Andhra_Pradesh,Tirumala,"Toll Gate, Tirumala - APPCB (Formerly known as Tirumala, Tirupati - APPCB)","07-04-2025 18:00:00",13.67,79.35,OZONE,8,50,38
India,Andhra_Pradesh,Tirupati,"Vaikuntapuram, Tirupati - APPCB","07-04-2025 18:00:00",13.615387,79.409230,NH3,3,6,4
India,Andhra_Pradesh,Tirupati,"Vaikuntapuram, Tirupati - APPCB","07-04-2025 18:00:00",13.615387,79.409230,CO,14,24,18
India,Andhra_Pradesh,Vijayawada,"HB Colony, Vijayawada - APPCB","07-04-2025 18:00:00",16.536107,80.594233,PM10,40,60,44
India,Andhra_Pradesh,Vijayawada,"Kanuru, Vijayawada - APPCB","07-04-2025 18:00:00",16.486692,80.699436,NO2,26,148,66
India,Andhra_Pradesh,Vijayawada,"Kanuru, Vijayawada - APPCB","07-04-2025 18:00:00",16.486692,80.699436,SO2,10,20,13
India,Andhra_Pradesh,Vijayawada,"Kanuru, Vijayawada - APPCB","07-04-2025 18:00:00",16.486692,80.699436,CO,12,40,27
India,Andhra_Pradesh,Vijayawada,"Kanuru, Vijayawada - APPCB","07-04-2025 18:00:00",16.486692,80.699436,OZONE,26,42,34
India,Andhra_Pradesh,Vijayawada,"Rajiv Gandhi Park, Vijayawada - APPCB","07-04-2025 18:00:00",16.509717,80.612222,PM2.5,NA,NA,NA
India,Bihar,Araria,"Kharahiya Basti, Araria - BSPCB","07-04-2025 18:00:00",26.146529,87.454184,OZONE,9,11,10
India,Bihar,Arrah,"New DM Office, Arrah - BSPCB","07-04-2025 18:00:00",25.5626095,84.663264,PM2.5,NA,NA,NA
India,Bihar,Aurangabad,"Gurdeo Nagar, Aurangabad - BSPCB","07-04-2025 18:00:00",24.75746,84.366208,PM2.5,43,407,213
India,Bihar,Aurangabad,"Gurdeo Nagar, Aurangabad - BSPCB","07-04-2025 18:00:00",24.75746,84.366208,PM10,61,467,201
India,Bihar,Begusarai,"Lohiyanagar, Begusarai - BSPCB","07-04-2025 18:00:00",25.42742023,86.13886079,NH3,9,15,12
India,Bihar,Begusarai,"Lohiyanagar, Begusarai - BSPCB","07-04-2025 18:00:00",25.42742023,86.13886079,CO,36,46,41
India,Bihar,Bettiah,"Kamalnath Nagar, Bettiah - BSPCB","07-04-2025 18:00:00",26.80365,84.51954,PM10,90,185,126
India,Bihar,Bettiah,"Kamalnath Nagar, Bettiah - BSPCB","07-04-2025 18:00:00",26.80365,84.51954,NH3,2,3,2
India,Bihar,Bettiah,"Kamalnath Nagar, Bettiah - BSPCB","07-04-2025 18:00:00",26.80365,84.51954,SO2,11,20,17
India,Assam,Guwahati,"Pan Bazaar, Guwahati - PCBA","07-04-2025 18:00:00",26.187500,91.744194,PM2.5,75,328,173
India,Assam,Nagaon,"Christianpatty, Nagaon - PCBA","07-04-2025 18:00:00",26.349082,92.68449,PM2.5,NA,NA,NA
India,Assam,Nagaon,"Christianpatty, Nagaon - PCBA","07-04-2025 18:00:00",26.349082,92.68449,NH3,NA,NA,NA
India,Assam,Nalbari,"Bata Chowk, Nalbari - PCBA","07-04-2025 18:00:00",26.446912,91.439057,PM10,98,131,112
India,Assam,Byrnihat,"Central Academy for SFS, Byrnihat - PCBA","07-04-2025 18:00:00",26.071318,91.87488,PM10,50,411,139
India,Assam,Guwahati,"LGBI Airport, Guwahati - PCBA","07-04-2025 18:00:00",26.10887,91.589544,PM2.5,NA,NA,NA
India,Assam,Guwahati,"LGBI Airport, Guwahati - PCBA","07-04-2025 18:00:00",26.10887,91.589544,NO2,NA,NA,NA
India,Assam,Guwahati,"LGBI Airport, Guwahati - PCBA","07-04-2025 18:00:00",26.10887,91.589544,OZONE,16,19,18
India,Bihar,"Bihar Sharif","D M Colony, Bihar Sharif - BSPCB","07-04-2025 18:00:00",25.204762,85.514960,SO2,NA,NA,NA
India,Bihar,Buxar,"Charitra Van, Buxar - BSPCB","07-04-2025 18:00:00",25.567520,83.966379,PM10,NA,NA,NA
India,Bihar,Buxar,"Charitra Van, Buxar - BSPCB","07-04-2025 18:00:00",25.567520,83.966379,NO2,4,5,5
India,Bihar,Buxar,"Charitra Van, Buxar - BSPCB","07-04-2025 18:00:00",25.567520,83.966379,NH3,4,4,4
India,Andhra_Pradesh,Chittoor,"Gangineni Cheruvu, Chittoor - APPCB","07-04-2025 18:00:00",13.204880,79.097889,PM2.5,37,150,78
India,Andhra_Pradesh,Chittoor,"Gangineni Cheruvu, Chittoor - APPCB","07-04-2025 18:00:00",13.204880,79.097889,NO2,9,17,13
India,Andhra_Pradesh,Kadapa,"Yerramukkapalli, Kadapa - APPCB","07-04-2025 18:00:00",14.465052,78.824187,SO2,14,16,15
India,Andhra_Pradesh,Amaravati,"Secretariat, Amaravati - APPCB","07-04-2025 18:00:00",16.5150833,80.5181667,PM2.5,2,40,12
India,Andhra_Pradesh,Amaravati,"Secretariat, Amaravati - APPCB","07-04-2025 18:00:00",16.5150833,80.5181667,CO,4,52,35
India,Andhra_Pradesh,Anantapur,"Gulzarpet, Anantapur - APPCB","07-04-2025 18:00:00",14.675886,77.593027,SO2,7,13,10
India,Andhra_Pradesh,Rajamahendravaram,"Anand Kala Kshetram, Rajamahendravaram - APPCB","07-04-2025 18:00:00",16.9872867,81.7363176,NO2,9,46,24
India,Andhra_Pradesh,Rajamahendravaram,"Anand Kala Kshetram, Rajamahendravaram - APPCB","07-04-2025 18:00:00",16.9872867,81.7363176,CO,10,105,18
India,Andhra_Pradesh,Rajamahendravaram,"Anand Kala Kshetram, Rajamahendravaram - APPCB","07-04-2025 18:00:00",16.9872867,81.7363176,OZONE,5,7,6
India,Assam,Sivasagar,"Girls College, Sivasagar - PCBA","07-04-2025 18:00:00",26.987634,94.636574,CO,9,46,13
India,Bihar,Araria,"Kharahiya Basti, Araria - BSPCB","07-04-2025 18:00:00",26.146529,87.454184,NO2,7,7,7
India,Andhra_Pradesh,Vijayawada,"Rajiv Nagar, Vijayawada - APPCB","07-04-2025 18:00:00",16.554731,80.649110,CO,37,48,43
India,Bihar,Manguraha,"Forest Rest House, Manguraha - BSPCB","07-04-2025 18:00:00",27.308328,84.531742,NO2,NA,NA,NA
India,Bihar,Manguraha,"Forest Rest House, Manguraha - BSPCB","07-04-2025 18:00:00",27.308328,84.531742,SO2,NA,NA,NA
India,Bihar,Motihari,"Gandak Colony, Motihari - BSPCB","07-04-2025 18:00:00",26.63086,84.90051,SO2,6,15,10
India,Bihar,Munger,"Town Hall, Munger - BSPCB","07-04-2025 18:00:00",25.376776,86.471523,OZONE,2,11,5
India,Bihar,Muzaffarpur,"Buddha Colony, Muzaffarpur - BSPCB","07-04-2025 18:00:00",26.11442,85.39813,SO2,3,11,7
India,Bihar,Chhapra,"Darshan Nagar, Chhapra - BSPCB","07-04-2025 18:00:00",25.7808257,84.7446768,CO,6,17,9
India,Bihar,Gaya,"Collectorate, Gaya - BSPCB","07-04-2025 18:00:00",24.7955,84.9994,PM2.5,NA,NA,NA
India,Bihar,Gaya,"Collectorate, Gaya - BSPCB","07-04-2025 18:00:00",24.7955,84.9994,SO2,NA,NA,NA
India,Bihar,Gaya,"Collectorate, Gaya - BSPCB","07-04-2025 18:00:00",24.7955,84.9994,CO,41,92,52
India,Bihar,Gaya,"Kareemganj, Gaya - BSPCB","07-04-2025 18:00:00",24.792403,84.992416,PM10,105,296,165
India,Bihar,Patna,"Govt. High School Shikarpur, Patna - BSPCB","07-04-2025 18:00:00",25.592539,85.227158,OZONE,16,77,59
India,Bihar,Patna,"IGSC Planetarium Complex, Patna - BSPCB","07-04-2025 18:00:00",25.610369,85.132568,CO,76,88,84
India,Bihar,Patna,"Muradpur, Patna - BSPCB","07-04-2025 18:00:00",25.619651,85.147382,PM2.5,125,294,218
India,Bihar,Patna,"Muradpur, Patna - BSPCB","07-04-2025 18:00:00",25.619651,85.147382,NH3,1,14,4
India,Bihar,Muzaffarpur,"MIT-Daudpur Kothi, Muzaffarpur - BSPCB","07-04-2025 18:00:00",26.1403345,85.3650192,OZONE,8,51,32
India,Bihar,Muzaffarpur,"Muzaffarpur Collectorate, Muzaffarpur - BSPCB","07-04-2025 18:00:00",26.1209,85.3647,OZONE,16,78,47
India,Bihar,Patna,"DRM Office Danapur, Patna - BSPCB","07-04-2025 18:00:00",25.586562,85.043586,NO2,30,34,32
India,Bihar,Gaya,"SFTI Kusdihra, Gaya - BSPCB","07-04-2025 18:00:00",24.762518,84.982348,PM2.5,19,105,61
India,Bihar,Gaya,"SFTI Kusdihra, Gaya - BSPCB","07-04-2025 18:00:00",24.762518,84.982348,PM10,57,116,94
India,Bihar,Gaya,"SFTI Kusdihra, Gaya - BSPCB","07-04-2025 18:00:00",24.762518,84.982348,NH3,3,4,3
India,Bihar,Kishanganj,"SDM Office_Khagra, Kishanganj - BSPCB","07-04-2025 18:00:00",26.0881305,87.93840336,NO2,NA,NA,NA
India,Bihar,Kishanganj,"SDM Office_Khagra, Kishanganj - BSPCB","07-04-2025 18:00:00",26.0881305,87.93840336,NH3,NA,NA,NA
India,Bihar,Kishanganj,"SDM Office_Khagra, Kishanganj - BSPCB","07-04-2025 18:00:00",26.0881305,87.93840336,PM2.5,NA,NA,NA
India,Bihar,Hajipur,"Industrial Area, Hajipur - BSPCB","07-04-2025 18:00:00",25.697189,85.245900,NO2,14,31,21
India,Bihar,Gaya,"Kareemganj, Gaya - BSPCB","07-04-2025 18:00:00",24.792403,84.992416,NH3,4,6,5
India,Bihar,Samastipur,"DM Office_Kasipur, Samastipur - BSPCB","07-04-2025 18:00:00",25.859655,85.77944,SO2,NA,NA,NA
India,Bihar,Sasaram,"Dada Peer, Sasaram - BSPCB","07-04-2025 18:00:00",24.952822,84.002396,PM2.5,98,318,235
India,Bihar,Sasaram,"Dada Peer, Sasaram - BSPCB","07-04-2025 18:00:00",24.952822,84.002396,OZONE,NA,NA,NA
India,Bihar,Siwan,"Chitragupta Nagar, Siwan - BSPCB","07-04-2025 18:00:00",26.2271665,84.3570427,OZONE,4,74,34
India,Chandigarh,Chandigarh,"Sector 22, Chandigarh - CPCC","07-04-2025 18:00:00",30.735567,76.775714,PM10,56,153,109
India,Bihar,Saharsa,"Police Line, Saharsa - BSPCB","07-04-2025 18:00:00",25.892357,86.590325,NO2,6,8,7
India,Bihar,Samastipur,"DM Office_Kasipur, Samastipur - BSPCB","07-04-2025 18:00:00",25.859655,85.77944,PM2.5,NA,NA,NA
India,Bihar,Samastipur,"DM Office_Kasipur, Samastipur - BSPCB","07-04-2025 18:00:00",25.859655,85.77944,NO2,NA,NA,NA
India,Chhattisgarh,Chhal,"Nawapara SECL Colony, Chhal - CECB","07-04-2025 18:00:00",22.118125,83.140608,NH3,7,7,7
India,Chhattisgarh,Chhal,"Nawapara SECL Colony, Chhal - CECB","07-04-2025 18:00:00",22.118125,83.140608,OZONE,21,87,63
India,Chhattisgarh,Korba,"Rampur, Korba - CECB","07-04-2025 18:00:00",22.368195,82.746431,NH3,NA,NA,NA
India,Chhattisgarh,Bhilai,"32Bungalows, Bhilai - CECB","07-04-2025 18:00:00",21.194815,81.314770,PM2.5,35,58,46
India,Chhattisgarh,Bhilai,"32Bungalows, Bhilai - CECB","07-04-2025 18:00:00",21.194815,81.314770,PM10,37,80,60
India,Chhattisgarh,Bhilai,"Civic Center, Bhilai - Bhilai Steel Plant","07-04-2025 18:00:00",21.185571,81.343175,PM10,33,83,55
India,Chhattisgarh,Bhilai,"Hathkhoj, Bhilai - CECB","07-04-2025 18:00:00",21.224231,81.408350,OZONE,12,32,30
India,Chhattisgarh,Bilaspur,"Mangala, Bilaspur - NTPC","07-04-2025 18:00:00",22.08815,82.13737,PM10,NA,NA,NA
India,Chhattisgarh,Korba,"Urja Nagar, Korba - CECB","07-04-2025 18:00:00",22.348441,82.549611,NH3,1,8,2
India,Chhattisgarh,Korba,"Urja Nagar, Korba - CECB","07-04-2025 18:00:00",22.348441,82.549611,OZONE,35,36,35
India,Chandigarh,Chandigarh,"Sector-25, Chandigarh - CPCC","07-04-2025 18:00:00",30.751462,76.762879,SO2,3,10,6
India,Bihar,Purnia,"Mariam Nagar, Purnia - BSPCB","07-04-2025 18:00:00",25.366336,87.117468,NO2,16,21,19
India,Chhattisgarh,Korba,"Rampur, Korba - CECB","07-04-2025 18:00:00",22.368195,82.746431,CO,30,44,34
India,Delhi,Delhi,"Major Dhyan Chand National Stadium, Delhi - DPCC","07-04-2025 18:00:00",28.611281,77.237738,SO2,8,63,22
India,Delhi,Delhi,"Mandir Marg, Delhi - DPCC","07-04-2025 18:00:00",28.636429,77.201067,NH3,8,13,10
India,Delhi,Delhi,"Mundka, Delhi - DPCC","07-04-2025 18:00:00",28.684678,77.076574,PM10,103,500,318
India,Delhi,Delhi,"Mundka, Delhi - DPCC","07-04-2025 18:00:00",28.684678,77.076574,NO2,39,127,76
India,Delhi,Delhi,"Mundka, Delhi - DPCC","07-04-2025 18:00:00",28.684678,77.076574,CO,6,107,20
India,Delhi,Delhi,"Mundka, Delhi - DPCC","07-04-2025 18:00:00",28.684678,77.076574,OZONE,4,159,136
India,Delhi,Delhi,"NSIT Dwarka, Delhi - CPCB","07-04-2025 18:00:00",28.60909,77.0325413,PM10,104,437,218
India,Delhi,Delhi,"NSIT Dwarka, Delhi - CPCB","07-04-2025 18:00:00",28.60909,77.0325413,SO2,2,36,13
India,Delhi,Delhi,"Najafgarh, Delhi - DPCC","07-04-2025 18:00:00",28.570173,76.933762,OZONE,2,321,313
India,Delhi,Delhi,"Bawana, Delhi - DPCC","07-04-2025 18:00:00",28.776200,77.051074,NO2,15,123,58
India,Delhi,Delhi,"Bawana, Delhi - DPCC","07-04-2025 18:00:00",28.776200,77.051074,SO2,10,64,29
India,Delhi,Delhi,"Burari Crossing, Delhi - IMD","07-04-2025 18:00:00",28.7256504,77.2011573,OZONE,8,110,64
India,Delhi,Delhi,"CRRI Mathura Road, Delhi - IMD","07-04-2025 18:00:00",28.5512005,77.2735737,PM10,89,475,292
India,Delhi,Delhi,"CRRI Mathura Road, Delhi - IMD","07-04-2025 18:00:00",28.5512005,77.2735737,NO2,11,193,97
India,Delhi,Delhi,"Chandni Chowk, Delhi - IITM","07-04-2025 18:00:00",28.656756,77.227234,NO2,69,206,136
India,Chhattisgarh,Milupara,"Govt. Higher Secondary School, Milupara - CECB","07-04-2025 18:00:00",22.1910172,83.5197009,NO2,22,93,55
India,Chhattisgarh,Milupara,"Govt. Higher Secondary School, Milupara - CECB","07-04-2025 18:00:00",22.1910172,83.5197009,OZONE,13,32,29
India,Chhattisgarh,Raipur,"AIIMS, Raipur - CECB","07-04-2025 18:00:00",21.258815,81.578979,PM10,39,90,66
India,Chhattisgarh,Raipur,"Bhatagaon New ISBT, Raipur - CECB","07-04-2025 18:00:00",21.219665,81.630094,SO2,3,18,8
India,Chhattisgarh,Raipur,"Krishak Nagar, Raipur - CECB","07-04-2025 18:00:00",21.237755,81.705301,PM10,43,81,63
India,Delhi,Delhi,"DTU, Delhi - CPCB","07-04-2025 18:00:00",28.7500499,77.1112615,PM2.5,36,265,130
India,Delhi,Delhi,"DTU, Delhi - CPCB","07-04-2025 18:00:00",28.7500499,77.1112615,SO2,66,77,70
India,Delhi,Delhi,"DTU, Delhi - CPCB","07-04-2025 18:00:00",28.7500499,77.1112615,OZONE,25,44,37
India,Delhi,Delhi,"Dr. Karni Singh Shooting Range, Delhi - DPCC","07-04-2025 18:00:00",28.498571,77.264840,NH3,3,9,7
India,Delhi,Delhi,"Dr. Karni Singh Shooting Range, Delhi - DPCC","07-04-2025 18:00:00",28.498571,77.264840,CO,18,113,43
India,Delhi,Delhi,"Dwarka-Sector 8, Delhi - DPCC ","07-04-2025 18:00:00",28.5710274,77.0719006,NH3,11,18,14
India,Delhi,Delhi,"Dwarka-Sector 8, Delhi - DPCC ","07-04-2025 18:00:00",28.5710274,77.0719006,SO2,17,32,23
India,Delhi,Delhi,"Alipur, Delhi - DPCC","07-04-2025 18:00:00",28.815329,77.153010,PM10,NA,NA,NA
India,Delhi,Delhi,"Alipur, Delhi - DPCC","07-04-2025 18:00:00",28.815329,77.153010,NH3,10,12,11
India,Delhi,Delhi,"Alipur, Delhi - DPCC","07-04-2025 18:00:00",28.815329,77.153010,SO2,7,42,20
India,Delhi,Delhi,"Ashok Vihar, Delhi - DPCC","07-04-2025 18:00:00",28.695381,77.181665,PM2.5,38,378,227
India,Delhi,Delhi,"Ashok Vihar, Delhi - DPCC","07-04-2025 18:00:00",28.695381,77.181665,NH3,7,11,9
India,Chhattisgarh,Tumidih,"OP Jindal Industrial Park, Tumidih - CECB","07-04-2025 18:00:00",22.06631475,83.33820077,PM2.5,39,279,133
India,Chhattisgarh,Raipur,"Siltara Phase-II, Raipur - CECB","07-04-2025 18:00:00",21.371751,81.664929,SO2,NA,NA,NA
India,Delhi,Delhi,"Vivek Vihar, Delhi - DPCC","07-04-2025 18:00:00",28.672342,77.315260,OZONE,2,305,200
India,Delhi,Delhi,"Wazirpur, Delhi - DPCC","07-04-2025 18:00:00",28.699793,77.165453,SO2,27,65,45
India,Delhi,Delhi,"Wazirpur, Delhi - DPCC","07-04-2025 18:00:00",28.699793,77.165453,CO,28,124,65
India,Delhi,Delhi,"Wazirpur, Delhi - DPCC","07-04-2025 18:00:00",28.699793,77.165453,OZONE,5,317,304
India,Gujarat,Ahmedabad,"Chandkheda, Ahmedabad - IITM","07-04-2025 18:00:00",23.107969,72.574648,PM2.5,41,328,91
India,Delhi,Delhi,"Rohini, Delhi - DPCC","07-04-2025 18:00:00",28.732528,77.119920,PM2.5,47,373,264
India,Delhi,Delhi,"Rohini, Delhi - DPCC","07-04-2025 18:00:00",28.732528,77.119920,PM10,113,500,342
India,Delhi,Delhi,"Sirifort, Delhi - CPCB","07-04-2025 18:00:00",28.5504249,77.2159377,PM10,113,424,254
India,Delhi,Delhi,"Sirifort, Delhi - CPCB","07-04-2025 18:00:00",28.5504249,77.2159377,CO,27,131,68
India,Delhi,Delhi,"Sonia Vihar, Delhi - DPCC","07-04-2025 18:00:00",28.710508,77.249485,SO2,11,44,22
India,Delhi,Delhi,"Punjabi Bagh, Delhi - DPCC","07-04-2025 18:00:00",28.674045,77.131023,OZONE,3,309,74
India,Delhi,Delhi,"Pusa, Delhi - DPCC","07-04-2025 18:00:00",28.639652,77.146275,CO,2,68,5
India,Delhi,Delhi,"Pusa, Delhi - IMD","07-04-2025 18:00:00",28.636110,77.173332,PM2.5,NA,NA,NA
India,Delhi,Delhi,"Pusa, Delhi - IMD","07-04-2025 18:00:00",28.636110,77.173332,CO,28,32,31
India,Gujarat,Ahmedabad,"Maninagar, Ahmedabad - GPCB","07-04-2025 18:00:00",23.002657,72.591912,CO,10,92,43
India,Gujarat,Ahmedabad,"Raikhad, Ahmedabad - IITM","07-04-2025 18:00:00",23.020509,72.579261,PM2.5,33,334,122
India,Delhi,Delhi,"Narela, Delhi - DPCC","07-04-2025 18:00:00",28.822836,77.101981,NH3,7,18,10
India,Delhi,Delhi,"Nehru Nagar, Delhi - DPCC","07-04-2025 18:00:00",28.567890,77.250515,PM2.5,47,399,230
India,Delhi,Delhi,"Patparganj, Delhi - DPCC","07-04-2025 18:00:00",28.623763,77.287209,SO2,1,103,10
India,Delhi,Delhi,"Punjabi Bagh, Delhi - DPCC","07-04-2025 18:00:00",28.674045,77.131023,PM10,96,404,219
India,Delhi,Delhi,"Sri Aurobindo Marg, Delhi - DPCC","07-04-2025 18:00:00",28.531346,77.190156,NO2,18,114,63
India,Delhi,Delhi,"Patparganj, Delhi - DPCC","07-04-2025 18:00:00",28.623763,77.287209,PM2.5,42,378,211
India,Delhi,Delhi,"Punjabi Bagh, Delhi - DPCC","07-04-2025 18:00:00",28.674045,77.131023,SO2,NA,NA,NA
India,Gujarat,Ahmedabad,"Sardar Vallabhbhai Patel Stadium, Ahmedabad - IITM","07-04-2025 18:00:00",23.043070,72.562968,NO2,14,72,30
India,Gujarat,Ahmedabad,"Sardar Vallabhbhai Patel Stadium, Ahmedabad - IITM","07-04-2025 18:00:00",23.043070,72.562968,SO2,9,39,19
India,Gujarat,Ankleshwar,"GIDC, Ankleshwar - GPCB","07-04-2025 18:00:00",21.613267,73.010555,NH3,7,9,8
India,Gujarat,Ankleshwar,"GIDC, Ankleshwar - GPCB","07-04-2025 18:00:00",21.613267,73.010555,SO2,44,46,45
India,Gujarat,Ankleshwar,"GIDC, Ankleshwar - GPCB","07-04-2025 18:00:00",21.613267,73.010555,OZONE,31,40,32
India,Gujarat,Gandhinagar,"GIFT City, Gandhinagar - IITM","07-04-2025 18:00:00",23.163798,72.677768,PM2.5,30,284,75
India,Gujarat,Gandhinagar,"GIFT City, Gandhinagar - IITM","07-04-2025 18:00:00",23.163798,72.677768,SO2,5,11,7
India,Gujarat,Gandhinagar,"IIPHG Lekawada, Gandhinagar - IITM","07-04-2025 18:00:00",23.243639,72.68994,NO2,23,133,58
India,Gujarat,Gandhinagar,"IIPHG Lekawada, Gandhinagar - IITM","07-04-2025 18:00:00",23.243639,72.68994,SO2,5,28,11
India,Gujarat,Gandhinagar,"IIPHG Lekawada, Gandhinagar - IITM","07-04-2025 18:00:00",23.243639,72.68994,OZONE,2,46,41
India,Gujarat,Gandhinagar,"Sector-10, Gandhinagar - GPCB","07-04-2025 18:00:00",23.221714,72.654328,PM10,27,128,59
India,Jharkhand,Dhanbad,"Sardar Patel Nagar, Dhanbad - JSPCB","07-04-2025 18:00:00",23.80569,86.44268,OZONE,19,58,43
India,Karnataka,Bagalkot,"Vidayagiri, Bagalkot - KSPCB","07-04-2025 18:00:00",16.172806,75.659694,NO2,9,10,9
India,Karnataka,Bagalkot,"Vidayagiri, Bagalkot - KSPCB","07-04-2025 18:00:00",16.172806,75.659694,OZONE,12,16,16
India,Karnataka,Belgaum,"Ramteerth Nagar, Belgaum - KSPCB","07-04-2025 18:00:00",15.888653,74.541751,SO2,14,15,15
India,Karnataka,Bengaluru,"Bapuji Nagar, Bengaluru - KSPCB","07-04-2025 18:00:00",12.951913,77.539784,PM2.5,44,99,66
India,Karnataka,Bengaluru,"Bapuji Nagar, Bengaluru - KSPCB","07-04-2025 18:00:00",12.951913,77.539784,NO2,7,15,9
India,Karnataka,Bengaluru,"Bapuji Nagar, Bengaluru - KSPCB","07-04-2025 18:00:00",12.951913,77.539784,CO,34,100,51
India,Gujarat,Gandhinagar,"Sector-10, Gandhinagar - GPCB","07-04-2025 18:00:00",23.221714,72.654328,SO2,4,7,6
India,Gujarat,Nandesari,"GIDC, Nandesari - Nandesari Ind. Association","07-04-2025 18:00:00",22.410802,73.097923,PM10,1,9,3
India,Gujarat,Vatva,"Phase-4 GIDC, Vatva - GPCB","07-04-2025 18:00:00",22.969611,72.643500,SO2,16,34,24
India,Gujarat,Ahmedabad,"Rakhial, Ahmedabad - IITM","07-04-2025 18:00:00",23.016834,72.625775,NH3,6,15,8
India,Gujarat,Ahmedabad,"SAC ISRO Satellite, Ahmedabad - IITM","07-04-2025 18:00:00",23.023389,72.515201,SO2,NA,NA,NA
India,"Himachal Pradesh",Baddi,"HIMUDA Complex Phase-1, Baddi - HPPCB","07-04-2025 18:00:00",30.943887,76.801991,NO2,8,86,22
India,"Himachal Pradesh",Baddi,"HIMUDA Complex Phase-1, Baddi - HPPCB","07-04-2025 18:00:00",30.943887,76.801991,NH3,5,8,6
India,Haryana,Panchgaon,"Amity University, Panchgaon - IITM","07-04-2025 18:00:00",28.3153,76.9143,PM2.5,23,61,37
India,Haryana,Gurugram,"NISE Gwal Pahari, Gurugram - IMD","07-04-2025 18:00:00",28.422681,77.148944,CO,19,66,29
India,Jammu_and_Kashmir,Srinagar,"Rajbagh, Srinagar - JKSPCB","07-04-2025 18:00:00",34.066206,74.819820,SO2,3,4,3
India,Haryana,Panchgaon,"Amity University, Panchgaon - IITM","07-04-2025 18:00:00",28.3153,76.9143,SO2,14,28,22
India,Karnataka,Bidar,"Naubad, Bidar - KSPCB","07-04-2025 18:00:00",17.930306,77.482194,OZONE,22,23,22
India,Karnataka,Chamarajanagar,"Urban, Chamarajanagar - KSPCB","07-04-2025 18:00:00",11.55358,76.55521,SO2,2,6,4
India,Karnataka,Chamarajanagar,"Urban, Chamarajanagar - KSPCB","07-04-2025 18:00:00",11.55358,76.55521,OZONE,14,39,36
India,Karnataka,Chikkaballapur,"Chikkaballapur Rural, Chikkaballapur - KSPCB","07-04-2025 18:00:00",13.428828,77.731418,PM10,37,92,53
India,Karnataka,Chikkamagaluru,"Kalyana Nagara, Chikkamagaluru - KSPCB","07-04-2025 18:00:00",13.328028,75.797056,CO,11,20,11
India,Karnataka,Davanagere,"Devaraj Urs Badavane, Davanagere - KSPCB","07-04-2025 18:00:00",14.475800,75.905200,PM10,33,49,41
India,Karnataka,Mysuru,"Hebbal 1st Stage, Mysuru - KSPCB","07-04-2025 18:00:00",12.21041,76.37376,NH3,3,7,5
India,Karnataka,Mysuru,"Hebbal 1st Stage, Mysuru - KSPCB","07-04-2025 18:00:00",12.21041,76.37376,OZONE,7,154,154
India,Karnataka,Shivamogga,"Vinoba Nagara, Shivamogga - KSPCB","07-04-2025 18:00:00",13.940000,75.555917,NH3,2,3,2
India,Karnataka,Shivamogga,"Vinoba Nagara, Shivamogga - KSPCB","07-04-2025 18:00:00",13.940000,75.555917,SO2,3,8,6
India,Karnataka,Yadgir,"Collector Office, Yadgir - KSPCB","07-04-2025 18:00:00",16.7602,77.1428,CO,14,24,15
India,Kerala,Eloor,"Udyogamandal, Eloor - Kerala PCB","07-04-2025 18:00:00",10.073232,76.302765,PM2.5,NA,NA,NA
India,Kerala,Eloor,"Udyogamandal, Eloor - Kerala PCB","07-04-2025 18:00:00",10.073232,76.302765,NO2,NA,NA,NA
India,Karnataka,Bengaluru,"City Railway Station, Bengaluru - KSPCB","07-04-2025 18:00:00",12.9756843,77.5660749,CO,48,79,62
India,Karnataka,Bengaluru,"Hebbal, Bengaluru - KSPCB","07-04-2025 18:00:00",13.029152,77.585901,CO,5,37,22
India,Karnataka,Bengaluru,"Hebbal, Bengaluru - KSPCB","07-04-2025 18:00:00",13.029152,77.585901,OZONE,7,26,20
India,Karnataka,Bengaluru,"Hombegowda Nagar, Bengaluru - KSPCB","07-04-2025 18:00:00",12.938539,77.590100,PM10,40,53,47
India,Karnataka,Bengaluru,"Jayanagar 5th Block, Bengaluru - KSPCB","07-04-2025 18:00:00",12.920984,77.584908,SO2,1,15,7
India,Karnataka,Bengaluru,"Jigani, Bengaluru - KSPCB","07-04-2025 18:00:00",12.7816279,77.6299145,NO2,NA,NA,NA
India,Karnataka,Bengaluru,"Peenya, Bengaluru - CPCB","07-04-2025 18:00:00",13.0270199,77.494094,NO2,15,22,20
India,Karnataka,Bengaluru,"Peenya, Bengaluru - CPCB","07-04-2025 18:00:00",13.0270199,77.494094,CO,12,174,22
India,Karnataka,Bengaluru,"Shivapura_Peenya, Bengaluru - KSPCB","07-04-2025 18:00:00",13.0246342,77.5080115,PM10,39,93,64
India,Karnataka,Bengaluru,"Silk Board, Bengaluru - KSPCB","07-04-2025 18:00:00",12.917348,77.622813,PM10,65,172,105
India,Karnataka,Bengaluru,"Silk Board, Bengaluru - KSPCB","07-04-2025 18:00:00",12.917348,77.622813,CO,9,32,20
India,Karnataka,Kalaburagi,"Lal Bahadur Shastri Nagar, Kalaburagi - KSPCB","07-04-2025 18:00:00",17.321993,76.822628,PM10,43,109,75
India,Karnataka,Kalaburagi,"Lal Bahadur Shastri Nagar, Kalaburagi - KSPCB","07-04-2025 18:00:00",17.321993,76.822628,NO2,8,13,11
India,Karnataka,Kalaburagi,"Lal Bahadur Shastri Nagar, Kalaburagi - KSPCB","07-04-2025 18:00:00",17.321993,76.822628,SO2,33,47,35
India,Karnataka,Kalaburagi,"Lal Bahadur Shastri Nagar, Kalaburagi - KSPCB","07-04-2025 18:00:00",17.321993,76.822628,CO,25,28,27
India,Karnataka,Madikeri,"Stuart Hill, Madikeri - KSPCB","07-04-2025 18:00:00",12.415911,75.735050,PM10,23,58,46
India,Karnataka,Madikeri,"Stuart Hill, Madikeri - KSPCB","07-04-2025 18:00:00",12.415911,75.735050,NO2,6,14,10
India,Karnataka,Mangalore,"Kadri, Mangalore - KSPCB","07-04-2025 18:00:00",12.889250,74.853000,PM10,37,53,45
India,Karnataka,Kalaburagi,"Mahatma Basaveswar Colony, Kalaburgi - KSPCB","07-04-2025 18:00:00",17.336318,76.847397,SO2,3,6,4
India,Karnataka,Kalaburagi,"Mahatma Basaveswar Colony, Kalaburgi - KSPCB","07-04-2025 18:00:00",17.336318,76.847397,CO,38,80,41
India,Karnataka,Mysuru,"Hebbal 1st Stage, Mysuru - KSPCB","07-04-2025 18:00:00",12.21041,76.37376,PM2.5,13,48,29
India,Karnataka,Bengaluru,"Jigani, Bengaluru - KSPCB","07-04-2025 18:00:00",12.7816279,77.6299145,OZONE,26,30,27
